Car.PitchAcc,Car.PitchVel,Car.RollAcc,Car.RollVel,Car.YawAcc,Car.YawVel,Car.ax,Car.ay,Car.az,Car.v,Car.vx,Car.vy,Car.vz,Time
rad/s^2,rad/s,rad/s^2,rad/s,rad/s^2,rad/s,m/s^2,m/s^2,m/s^2,m/s,m/s,m/s,m/s,s
-0.001191575,-3.05E-06,-9.13E-08,-2.26E-11,-2.03E-08,-4.58E-11,-0.000371065,-7.79E-08,0.001461098,4.80E-08,4.71E-08,2.05E-11,-9.46E-09,0.001
0.000298075,-2.63E-06,-5.18E-07,-4.35E-09,-1.22E-08,-1.79E-10,-1.70E-05,4.24E-08,-5.10E-05,2.05E-07,-6.83E-08,2.99E-10,-1.93E-07,0.011
0.000177809,-3.20E-07,-4.32E-07,-9.14E-09,-3.73E-08,-4.68E-10,3.37E-06,7.09E-08,-2.43E-05,3.42E-07,-2.34E-07,8.26E-10,-2.50E-07,0.021
0.000116576,1.07E-06,-3.32E-07,-1.30E-08,-2.87E-08,-8.02E-10,1.87E-05,9.72E-08,-1.16E-05,3.20E-07,-1.69E-07,1.58E-09,-2.72E-07,0.031
8.42E-05,2.06E-06,-1.89E-07,-1.55E-08,-1.21E-08,-9.99E-10,2.79E-05,1.02E-07,-1.32E-05,3.16E-07,4.45E-08,2.51E-09,-3.13E-07,0.041
5.71E-05,2.75E-06,-1.22E-07,-1.70E-08,-2.76E-09,-1.06E-09,3.10E-05,1.01E-07,-1.58E-05,5.12E-07,3.25E-07,3.48E-09,-3.96E-07,0.051
3.42E-05,3.19E-06,-6.38E-08,-1.79E-08,3.26E-10,-1.07E-09,2.93E-05,9.59E-08,-1.86E-05,8.03E-07,6.16E-07,4.44E-09,-5.15E-07,0.061
1.49E-05,3.42E-06,-3.28E-08,-1.83E-08,2.69E-08,-9.70E-10,2.51E-05,8.27E-08,-2.07E-05,1.10E-06,8.79E-07,5.33E-09,-6.68E-07,0.071
-8.62E-07,3.48E-06,-2.92E-10,-1.85E-08,7.98E-09,-8.02E-10,1.87E-05,7.35E-08,-2.20E-05,1.38E-06,1.09E-06,6.10E-09,-8.48E-07,0.081
-1.33E-05,3.40E-06,3.71E-08,-1.83E-08,-1.79E-09,-7.86E-10,1.28E-05,6.39E-08,-2.19E-05,1.62E-06,1.24E-06,6.76E-09,-1.04E-06,0.091
-2.28E-05,3.21E-06,6.19E-08,-1.78E-08,-4.54E-09,-8.22E-10,7.13E-06,5.32E-08,-2.06E-05,1.82E-06,1.34E-06,7.34E-09,-1.23E-06,0.101
-2.97E-05,2.94E-06,7.85E-08,-1.70E-08,-4.80E-09,-8.70E-10,2.17E-06,4.11E-08,-1.83E-05,1.97E-06,1.38E-06,7.81E-09,-1.41E-06,0.111
-3.44E-05,2.62E-06,8.84E-08,-1.62E-08,-3.82E-09,-9.14E-10,-2.02E-06,2.87E-08,-1.54E-05,2.09E-06,1.38E-06,8.16E-09,-1.57E-06,0.121
-3.74E-05,2.26E-06,9.45E-08,-1.53E-08,-2.26E-09,-9.44E-10,-5.43E-06,1.71E-08,-1.18E-05,2.17E-06,1.34E-06,8.39E-09,-1.70E-06,0.131
-3.89E-05,1.88E-06,9.87E-08,-1.43E-08,-1.53E-10,-9.54E-10,-8.15E-06,6.86E-09,-7.97E-06,2.21E-06,1.27E-06,8.51E-09,-1.80E-06,0.141
-3.92E-05,1.48E-06,1.01E-07,-1.33E-08,1.26E-09,-9.48E-10,-1.02E-05,-2.27E-09,-3.99E-06,2.20E-06,1.18E-06,8.53E-09,-1.86E-06,0.151
-3.87E-05,1.09E-06,1.02E-07,-1.23E-08,1.94E-09,-9.31E-10,-1.17E-05,-1.04E-08,-2.43E-08,2.17E-06,1.07E-06,8.47E-09,-1.88E-06,0.161
-3.75E-05,7.13E-07,1.02E-07,-1.13E-08,2.03E-09,-9.10E-10,-1.27E-05,-1.74E-08,3.81E-06,2.10E-06,9.51E-07,8.34E-09,-1.87E-06,0.171
-3.63E-05,3.46E-07,6.49E-08,-1.03E-08,3.01E-09,-8.89E-10,-1.32E-05,-2.73E-08,6.36E-06,2.00E-06,8.22E-07,8.13E-09,-1.82E-06,0.181
-3.61E-05,-1.64E-08,4.95E-08,-9.80E-09,1.70E-08,-7.79E-10,-1.38E-05,-3.11E-08,8.32E-06,1.88E-06,6.88E-07,7.86E-09,-1.75E-06,0.191
-3.54E-05,-3.74E-07,4.82E-08,-9.32E-09,2.08E-08,-5.82E-10,-1.26E-05,-3.25E-08,1.08E-05,1.75E-06,5.56E-07,7.54E-09,-1.66E-06,0.201
-3.44E-05,-7.23E-07,5.70E-08,-8.80E-09,1.33E-08,-3.93E-10,-1.33E-05,-3.25E-08,1.24E-05,1.60E-06,4.28E-07,7.21E-09,-1.54E-06,0.211
-3.28E-05,-1.06E-06,8.33E-08,-8.08E-09,4.11E-10,-3.51E-10,-1.36E-05,-3.29E-08,1.39E-05,1.45E-06,2.94E-07,6.87E-09,-1.42E-06,0.221
-3.09E-05,-1.38E-06,9.44E-08,-7.17E-09,-5.95E-10,-3.55E-10,-1.36E-05,-3.52E-08,1.52E-05,1.28E-06,1.59E-07,6.53E-09,-1.27E-06,0.231
-2.79E-05,-1.67E-06,1.11E-07,-6.02E-09,5.96E-10,-3.58E-10,-1.35E-05,-3.84E-08,1.59E-05,1.12E-06,2.47E-08,6.16E-09,-1.12E-06,0.241
-2.51E-05,-1.93E-06,1.08E-07,-4.92E-09,2.21E-09,-3.43E-10,-1.31E-05,-4.04E-08,1.63E-05,9.76E-07,-1.07E-07,5.77E-09,-9.70E-07,0.251
-2.20E-05,-2.17E-06,1.03E-07,-3.86E-09,3.58E-09,-3.13E-10,-1.25E-05,-4.35E-08,1.65E-05,8.45E-07,-2.34E-07,5.36E-09,-8.12E-07,0.261
-1.89E-05,-2.37E-06,9.56E-08,-2.87E-09,4.56E-09,-2.71E-10,-1.17E-05,-4.61E-08,1.66E-05,7.43E-07,-3.53E-07,4.91E-09,-6.53E-07,0.271
-1.57E-05,-2.54E-06,8.71E-08,-1.96E-09,5.13E-09,-2.22E-10,-1.08E-05,-4.77E-08,1.65E-05,6.79E-07,-4.65E-07,4.45E-09,-4.95E-07,0.281
-1.27E-05,-2.68E-06,7.87E-08,-1.13E-09,5.37E-09,-1.70E-10,-9.81E-06,-4.84E-08,1.62E-05,6.60E-07,-5.67E-07,3.98E-09,-3.38E-07,0.291
-9.66E-06,-2.79E-06,7.10E-08,-3.90E-10,5.35E-09,-1.16E-10,-8.74E-06,-4.83E-08,1.59E-05,6.83E-07,-6.58E-07,3.50E-09,-1.84E-07,0.301
-6.80E-06,-2.87E-06,6.37E-08,2.79E-10,5.14E-09,-6.34E-11,-7.63E-06,-4.76E-08,1.55E-05,7.40E-07,-7.39E-07,3.02E-09,-3.26E-08,0.311
-4.10E-06,-2.92E-06,5.68E-08,8.78E-10,4.81E-09,-1.37E-11,-6.51E-06,-4.62E-08,1.50E-05,8.16E-07,-8.08E-07,2.55E-09,1.14E-07,0.321
-1.57E-06,-2.95E-06,5.02E-08,1.41E-09,4.40E-09,3.21E-11,-5.41E-06,-4.45E-08,1.44E-05,9.04E-07,-8.67E-07,2.10E-09,2.56E-07,0.331
7.66E-07,-2.95E-06,4.38E-08,1.88E-09,3.95E-09,7.37E-11,-4.34E-06,-4.24E-08,1.38E-05,9.95E-07,-9.15E-07,1.67E-09,3.92E-07,0.341
2.90E-06,-2.93E-06,3.77E-08,2.28E-09,3.47E-09,1.11E-10,-3.30E-06,-4.01E-08,1.30E-05,1.09E-06,-9.52E-07,1.26E-09,5.22E-07,0.351
4.82E-06,-2.89E-06,3.18E-08,2.62E-09,3.00E-09,1.43E-10,-2.31E-06,-3.76E-08,1.22E-05,1.17E-06,-9.79E-07,8.76E-10,6.44E-07,0.361
6.53E-06,-2.84E-06,2.62E-08,2.91E-09,2.53E-09,1.70E-10,-1.38E-06,-3.49E-08,1.14E-05,1.25E-06,-9.97E-07,5.16E-10,7.59E-07,0.371
8.02E-06,-2.76E-06,2.08E-08,3.14E-09,2.06E-09,1.93E-10,-5.14E-07,-3.21E-08,1.05E-05,1.33E-06,-1.01E-06,1.82E-10,8.65E-07,0.381
9.31E-06,-2.68E-06,1.56E-08,3.32E-09,1.62E-09,2.11E-10,2.87E-07,-2.93E-08,9.51E-06,1.39E-06,-1.01E-06,-1.23E-10,9.62E-07,0.391
1.04E-05,-2.58E-06,1.08E-08,3.45E-09,1.19E-09,2.25E-10,1.02E-06,-2.64E-08,8.53E-06,1.45E-06,-1.00E-06,-4.00E-10,1.05E-06,0.401
1.13E-05,-2.47E-06,6.39E-09,3.54E-09,7.90E-10,2.34E-10,1.68E-06,-2.36E-08,7.53E-06,1.50E-06,-9.86E-07,-6.48E-10,1.13E-06,0.411
1.20E-05,-2.35E-06,2.31E-09,3.58E-09,4.19E-10,2.40E-10,2.27E-06,-2.07E-08,6.51E-06,1.54E-06,-9.66E-07,-8.68E-10,1.20E-06,0.421
1.25E-05,-2.23E-06,-1.39E-09,3.58E-09,8.83E-11,2.43E-10,2.79E-06,-1.79E-08,5.49E-06,1.57E-06,-9.41E-07,-1.06E-09,1.26E-06,0.431
1.28E-05,-2.10E-06,-4.70E-09,3.55E-09,-1.98E-10,2.42E-10,3.24E-06,-1.51E-08,4.48E-06,1.59E-06,-9.11E-07,-1.22E-09,1.31E-06,0.441
1.31E-05,-1.97E-06,-7.62E-09,3.48E-09,-4.37E-10,2.39E-10,3.62E-06,-1.24E-08,3.47E-06,1.61E-06,-8.76E-07,-1.36E-09,1.35E-06,0.451
1.31E-05,-1.84E-06,-1.02E-08,3.39E-09,-6.29E-10,2.33E-10,3.94E-06,-9.84E-09,2.49E-06,1.61E-06,-8.38E-07,-1.47E-09,1.38E-06,0.461
1.31E-05,-1.71E-06,-1.24E-08,3.28E-09,-7.64E-10,2.26E-10,4.20E-06,-7.37E-09,1.53E-06,1.61E-06,-7.98E-07,-1.56E-09,1.40E-06,0.471
1.29E-05,-1.58E-06,-1.43E-08,3.14E-09,-8.09E-10,2.18E-10,4.38E-06,-5.03E-09,6.07E-07,1.60E-06,-7.55E-07,-1.62E-09,1.41E-06,0.481
1.27E-05,-1.45E-06,-1.59E-08,2.99E-09,-9.29E-10,2.09E-10,4.51E-06,-2.86E-09,-2.80E-07,1.58E-06,-7.11E-07,-1.66E-09,1.41E-06,0.491
1.23E-05,-1.33E-06,-1.72E-08,2.83E-09,-1.07E-09,1.99E-10,4.59E-06,-8.46E-10,-1.12E-06,1.56E-06,-6.66E-07,-1.68E-09,1.41E-06,0.501
1.19E-05,-1.21E-06,-1.82E-08,2.65E-09,-1.24E-09,1.88E-10,4.64E-06,9.95E-10,-1.91E-06,1.52E-06,-6.20E-07,-1.68E-09,1.39E-06,0.511
1.14E-05,-1.09E-06,-1.90E-08,2.46E-09,-1.42E-09,1.74E-10,4.64E-06,2.67E-09,-2.65E-06,1.49E-06,-5.74E-07,-1.66E-09,1.37E-06,0.521
1.09E-05,-9.78E-07,-1.95E-08,2.27E-09,-1.62E-09,1.59E-10,4.61E-06,4.19E-09,-3.33E-06,1.44E-06,-5.28E-07,-1.63E-09,1.34E-06,0.531
1.04E-05,-8.71E-07,-1.84E-08,2.08E-09,-3.70E-09,1.32E-10,4.65E-06,5.55E-09,-3.93E-06,1.39E-06,-4.82E-07,-1.58E-09,1.31E-06,0.541
9.76E-06,-7.71E-07,-1.76E-08,1.90E-09,-3.82E-09,9.35E-11,4.79E-06,6.30E-09,-4.41E-06,1.34E-06,-4.35E-07,-1.52E-09,1.27E-06,0.551
8.94E-06,-6.78E-07,-2.36E-08,1.67E-09,-3.17E-09,5.73E-11,4.88E-06,7.33E-09,-5.12E-06,1.28E-06,-3.87E-07,-1.45E-09,1.22E-06,0.561
8.10E-06,-5.93E-07,-2.41E-08,1.44E-09,-1.34E-09,3.52E-11,4.87E-06,7.07E-09,-5.63E-06,1.22E-06,-3.39E-07,-1.38E-09,1.17E-06,0.571
7.32E-06,-5.16E-07,-2.47E-08,1.19E-09,-1.19E-10,2.93E-11,4.77E-06,7.36E-09,-6.08E-06,1.15E-06,-2.91E-07,-1.31E-09,1.11E-06,0.581
6.67E-06,-4.47E-07,-2.36E-08,9.49E-10,3.94E-10,3.12E-11,3.76E-06,7.91E-09,-6.68E-06,1.08E-06,-2.51E-07,-1.23E-09,1.05E-06,0.591
6.05E-06,-3.84E-07,3.74E-08,4.61E-10,-3.27E-09,6.11E-11,3.14E-06,3.30E-08,-7.13E-06,1.01E-06,-2.19E-07,-1.14E-09,9.82E-07,0.601
5.38E-06,-3.27E-07,4.78E-08,2.21E-10,-1.10E-08,5.90E-11,2.95E-06,3.25E-08,-7.42E-06,9.30E-07,-1.92E-07,-1.05E-09,9.09E-07,0.611
4.72E-06,-2.77E-07,-2.49E-08,-1.27E-10,-2.28E-07,2.58E-10,2.38E-06,1.01E-08,-7.76E-06,8.51E-07,-1.68E-07,-9.31E-10,8.35E-07,0.621
4.15E-06,-2.33E-07,-2.45E-08,1.91E-10,1.33E-07,7.55E-11,2.15E-06,-2.14E-09,-7.84E-06,7.72E-07,-1.45E-07,-8.70E-10,7.59E-07,0.631
3.64E-06,-1.94E-07,1.86E-08,6.99E-12,-1.82E-08,-8.13E-12,1.91E-06,7.00E-09,-7.77E-06,6.94E-07,-1.21E-07,-7.77E-10,6.83E-07,0.641
3.29E-06,-1.60E-07,-4.03E-09,4.83E-11,-1.46E-09,-7.67E-11,2.30E-06,7.28E-09,-7.54E-06,6.16E-07,-9.76E-08,-6.97E-10,6.09E-07,0.651
2.98E-06,-1.29E-07,-7.13E-09,-1.46E-11,1.56E-09,-7.02E-11,2.21E-06,7.20E-09,-7.29E-06,5.42E-07,-7.31E-08,-6.21E-10,5.37E-07,0.661
2.74E-06,-1.00E-07,-8.24E-09,-9.22E-11,1.85E-09,-5.21E-11,2.80E-06,6.72E-09,-6.71E-06,4.70E-07,-4.85E-08,-5.51E-10,4.67E-07,0.671
2.56E-06,-7.39E-08,-8.83E-09,-1.79E-10,1.59E-09,-3.51E-11,2.97E-06,6.36E-09,-6.24E-06,4.02E-07,-2.38E-08,-4.85E-10,4.02E-07,0.681
2.39E-06,-4.92E-08,-8.55E-09,-2.66E-10,1.19E-09,-2.16E-11,2.44E-06,6.03E-09,-5.91E-06,3.39E-07,4.23E-11,-4.23E-10,3.39E-07,0.691
2.19E-06,-2.62E-08,-7.62E-09,-3.47E-10,2.27E-09,-5.23E-12,1.79E-06,5.59E-09,-5.87E-06,2.82E-07,2.29E-08,-3.65E-10,2.81E-07,0.701
1.92E-06,-5.77E-09,-8.75E-08,-2.38E-10,-1.25E-07,-1.41E-10,2.08E-06,-1.28E-08,-5.52E-06,2.30E-07,4.51E-08,-3.09E-10,2.25E-07,0.711
1.70E-06,1.21E-08,-6.78E-08,-1.92E-10,-2.15E-07,-4.35E-10,2.01E-06,1.90E-08,-5.17E-06,1.86E-07,6.69E-08,-2.77E-10,1.73E-07,0.721
1.51E-06,2.81E-08,-6.61E-08,-3.74E-10,-2.31E-07,-2.93E-10,1.88E-06,2.73E-08,-4.87E-06,1.52E-07,8.79E-08,-2.35E-10,1.24E-07,0.731
1.36E-06,4.23E-08,-6.22E-08,-2.54E-10,-5.84E-08,-2.97E-10,1.84E-06,-7.50E-09,-4.63E-06,1.32E-07,1.07E-07,-2.18E-10,7.73E-08,0.741
1.20E-06,5.49E-08,-4.52E-08,-1.63E-10,8.62E-08,-2.03E-10,2.08E-06,-1.93E-08,-4.17E-06,1.29E-07,1.25E-07,-1.99E-10,3.36E-08,0.751
1.15E-06,6.64E-08,-4.12E-08,-2.73E-10,8.37E-08,-1.52E-10,1.95E-06,-1.92E-08,-3.89E-06,1.41E-07,1.40E-07,-1.67E-10,-7.38E-09,0.761
1.07E-06,7.73E-08,7.83E-09,-2.81E-10,1.00E-07,-2.03E-10,1.55E-06,1.67E-08,-3.79E-06,1.61E-07,1.55E-07,-1.38E-10,-4.60E-08,0.771
1.17E-06,8.74E-08,4.36E-08,-2.78E-10,2.06E-07,-1.74E-10,3.85E-07,1.96E-08,-3.11E-06,1.88E-07,1.69E-07,-8.38E-11,-8.19E-08,0.781
1.54E-06,1.03E-07,8.75E-08,-3.32E-10,5.17E-07,-1.22E-10,4.11E-07,4.74E-08,-2.55E-06,2.10E-07,1.76E-07,-4.62E-11,-1.14E-07,0.791
1.29E-06,1.18E-07,-2.55E-08,1.23E-10,2.03E-07,6.10E-10,1.08E-06,-2.30E-08,-3.47E-06,2.32E-07,1.83E-07,1.48E-11,-1.42E-07,0.801
1.08E-06,1.33E-07,-2.79E-08,1.64E-11,-9.71E-08,7.34E-11,9.91E-07,-5.03E-08,-2.47E-06,2.53E-07,1.90E-07,3.94E-11,-1.66E-07,0.811
1.86E-06,1.47E-07,2.13E-08,3.04E-10,1.17E-07,2.95E-10,2.65E-08,7.04E-09,-1.06E-06,2.71E-07,1.98E-07,2.98E-11,-1.86E-07,0.821
7.58E-07,1.61E-07,2.12E-08,-2.98E-10,1.24E-07,2.85E-10,1.65E-06,-6.81E-09,-2.59E-06,2.87E-07,2.04E-07,5.49E-11,-2.01E-07,0.831
1.18E-06,1.73E-07,6.00E-09,-6.37E-10,-2.19E-08,-2.72E-10,2.71E-07,1.63E-09,-3.86E-07,3.01E-07,2.11E-07,6.47E-11,-2.14E-07,0.841
1.45E-06,1.84E-07,-3.84E-09,-4.24E-10,5.12E-08,5.86E-10,-8.10E-08,1.21E-09,-5.75E-07,3.11E-07,2.17E-07,1.09E-10,-2.24E-07,0.851
6.76E-07,1.92E-07,1.53E-07,-5.06E-10,3.43E-07,3.48E-10,3.25E-07,2.11E-08,-5.58E-07,3.20E-07,2.21E-07,1.42E-10,-2.32E-07,0.861
3.60E-07,1.99E-07,1.28E-07,-6.52E-10,3.97E-07,6.61E-11,6.66E-07,4.83E-08,-9.87E-07,3.27E-07,2.24E-07,1.76E-10,-2.38E-07,0.871
-1.83E-07,2.04E-07,-1.36E-08,-6.84E-10,-6.36E-08,-1.01E-10,1.27E-06,7.44E-09,-1.81E-06,3.32E-07,2.26E-07,2.13E-10,-2.43E-07,0.881
-6.89E-08,2.07E-07,7.82E-08,-5.57E-10,1.60E-07,1.86E-11,1.81E-07,3.69E-08,-1.02E-07,3.35E-07,2.28E-07,2.41E-10,-2.46E-07,0.891
3.08E-07,2.08E-07,-7.00E-09,-6.22E-10,-4.16E-08,-1.84E-10,-3.13E-07,4.91E-09,1.44E-07,3.37E-07,2.29E-07,2.63E-10,-2.47E-07,0.901
2.02E-08,2.08E-07,-1.89E-08,-4.14E-10,-1.65E-07,4.00E-10,-5.33E-09,-1.62E-08,-2.93E-07,3.36E-07,2.28E-07,2.89E-10,-2.47E-07,0.911
-9.23E-08,2.05E-07,4.07E-08,-4.04E-10,1.14E-07,2.28E-10,-3.98E-07,-8.94E-09,4.26E-07,3.35E-07,2.27E-07,2.89E-10,-2.46E-07,0.921
-1.86E-07,2.01E-07,-2.52E-09,-5.60E-10,-3.81E-08,-2.33E-10,-4.69E-07,2.48E-09,5.08E-07,3.32E-07,2.26E-07,2.89E-10,-2.43E-07,0.931
-5.26E-07,1.97E-07,-4.26E-08,-2.53E-10,-2.96E-08,8.81E-10,-4.12E-07,5.51E-09,7.78E-07,3.26E-07,2.23E-07,3.04E-10,-2.38E-07,0.941
-8.49E-07,1.90E-07,2.33E-10,-5.88E-10,-6.71E-08,-2.41E-10,-3.26E-07,1.29E-09,1.05E-06,3.20E-07,2.20E-07,2.73E-10,-2.33E-07,0.951
-7.79E-07,1.84E-07,9.50E-09,-3.19E-10,-1.15E-07,1.86E-11,-1.46E-07,-2.32E-08,3.79E-07,3.12E-07,2.15E-07,2.67E-10,-2.26E-07,0.961
-9.44E-07,1.76E-07,-6.38E-08,-3.39E-10,-1.21E-07,4.66E-11,-3.19E-07,-3.82E-08,6.24E-07,3.04E-07,2.12E-07,2.61E-10,-2.18E-07,0.971
-1.02E-06,1.68E-07,-6.22E-08,-3.14E-10,-1.24E-07,4.09E-11,-3.48E-07,-3.89E-08,7.19E-07,2.94E-07,2.07E-07,2.55E-10,-2.09E-07,0.981
-1.09E-06,1.58E-07,-6.23E-08,-2.80E-10,-1.25E-07,2.78E-11,-3.64E-07,-3.94E-08,8.11E-07,2.84E-07,2.02E-07,2.45E-10,-1.99E-07,0.991
-1.01E-06,1.49E-07,-9.27E-09,-1.72E-10,-1.61E-07,1.87E-10,-2.58E-07,-2.03E-08,7.08E-07,2.72E-07,1.97E-07,2.37E-10,-1.88E-07,1.001
-1.13E-06,1.38E-07,8.99E-08,-4.23E-10,1.20E-07,-1.10E-09,-4.19E-07,3.73E-08,9.32E-07,2.61E-07,1.92E-07,2.04E-10,-1.77E-07,1.011
-8.88E-07,1.28E-07,1.35E-08,3.91E-11,1.12E-07,3.31E-10,-7.64E-07,-5.60E-09,1.35E-06,2.48E-07,1.86E-07,2.28E-10,-1.64E-07,1.021
-1.06E-06,1.17E-07,2.60E-08,-3.87E-10,1.51E-07,-1.02E-09,-2.97E-07,1.87E-08,8.71E-07,2.36E-07,1.81E-07,2.02E-10,-1.52E-07,1.031
-9.48E-07,1.07E-07,2.17E-08,1.08E-10,1.34E-07,4.59E-10,-7.55E-07,-8.74E-09,1.48E-06,2.23E-07,1.75E-07,2.20E-10,-1.39E-07,1.041
-1.18E-06,9.52E-08,-2.33E-09,-1.46E-10,-1.95E-08,-5.13E-11,-5.59E-07,-7.32E-10,1.71E-06,2.11E-07,1.70E-07,1.99E-10,-1.25E-07,1.051
-1.30E-06,8.48E-08,3.66E-09,-1.18E-10,-1.31E-09,-1.22E-10,-5.36E-07,-2.47E-09,1.82E-06,1.98E-07,1.64E-07,1.74E-10,-1.11E-07,1.061
-1.13E-06,7.39E-08,2.69E-09,-8.75E-11,2.13E-09,-1.12E-10,-5.87E-07,-2.27E-09,1.73E-06,1.87E-07,1.59E-07,1.51E-10,-9.74E-08,1.071
-1.10E-06,6.36E-08,2.41E-09,-6.26E-11,2.54E-09,-8.73E-11,-6.02E-07,-2.00E-09,1.72E-06,1.75E-07,1.54E-07,1.30E-10,-8.35E-08,1.081
-9.18E-07,5.33E-08,-7.48E-09,-2.91E-11,-1.64E-08,1.85E-11,-6.74E-07,1.34E-10,1.60E-06,1.64E-07,1.48E-07,1.12E-10,-6.98E-08,1.091
-7.76E-07,4.35E-08,3.00E-09,-2.31E-11,-1.95E-09,-4.68E-11,-7.46E-07,-1.79E-09,1.50E-06,1.54E-07,1.43E-07,9.15E-11,-5.61E-08,1.101
-6.92E-07,3.43E-08,2.80E-09,6.92E-12,7.43E-10,-4.79E-11,-7.92E-07,-1.74E-09,1.44E-06,1.44E-07,1.38E-07,7.35E-11,-4.27E-08,1.111
-1.31E-06,2.44E-08,2.33E-09,3.21E-11,1.16E-09,-3.73E-11,-7.62E-08,-1.60E-09,7.29E-07,1.36E-07,1.33E-07,5.71E-11,-2.96E-08,1.121
-8.83E-07,1.54E-08,2.16E-09,5.40E-11,1.11E-09,-2.60E-11,-5.67E-07,-1.43E-09,1.60E-06,1.30E-07,1.29E-07,4.17E-11,-1.69E-08,1.131
-5.69E-07,7.30E-09,2.10E-09,7.55E-11,1.01E-09,-1.54E-11,-7.21E-07,-1.27E-09,1.36E-06,1.24E-07,1.24E-07,2.82E-11,-4.73E-09,1.141
-1.06E-06,-1.22E-09,-2.21E-08,1.48E-10,-2.94E-08,1.43E-10,-2.31E-07,-5.10E-08,1.13E-06,1.20E-07,1.20E-07,1.87E-11,6.99E-09,1.151
-5.54E-07,-8.27E-09,2.18E-09,1.10E-10,-5.00E-09,1.61E-11,-6.05E-07,-7.52E-10,1.33E-06,1.18E-07,1.16E-07,8.47E-12,1.80E-08,1.161
-9.72E-07,-1.51E-08,1.32E-09,1.29E-10,-4.84E-10,-3.21E-12,-5.42E-09,-1.04E-09,4.41E-07,1.16E-07,1.13E-07,-7.95E-13,2.81E-08,1.171
-3.07E-07,-2.08E-08,4.41E-10,1.36E-10,4.06E-10,-2.00E-12,-6.24E-07,-9.91E-10,1.10E-06,1.16E-07,1.10E-07,-1.04E-11,3.73E-08,1.181
-1.46E-07,-2.72E-08,9.09E-11,1.38E-10,5.31E-10,2.92E-12,-5.95E-07,-8.90E-10,9.71E-07,1.18E-07,1.09E-07,-1.97E-11,4.55E-08,1.191
-3.78E-07,-3.20E-08,-6.15E-11,1.38E-10,4.61E-10,7.88E-12,-3.90E-07,-7.64E-10,1.11E-06,1.18E-07,1.06E-07,-2.80E-11,5.29E-08,1.201
-4.88E-07,-3.62E-08,-1.47E-10,1.37E-10,3.51E-10,1.19E-11,-2.57E-07,-6.35E-10,1.17E-06,1.19E-07,1.04E-07,-3.50E-11,5.93E-08,1.211
-6.72E-07,-3.94E-08,-2.20E-10,1.35E-10,2.41E-10,1.48E-11,-1.28E-07,-5.15E-10,1.27E-06,1.21E-07,1.02E-07,-4.07E-11,6.48E-08,1.221
-6.02E-07,-4.24E-08,-2.94E-10,1.33E-10,1.49E-10,1.68E-11,-9.69E-08,-4.09E-10,1.19E-06,1.22E-07,1.00E-07,-4.54E-11,6.95E-08,1.231
-2.94E-08,-4.31E-08,-3.70E-10,1.30E-10,8.63E-11,1.80E-11,-4.65E-07,-3.16E-10,7.01E-07,1.23E-07,9.82E-08,-4.90E-11,7.33E-08,1.241
1.11E-07,-4.52E-08,-4.52E-10,1.25E-10,2.62E-11,1.84E-11,-4.56E-07,-2.33E-10,5.74E-07,1.24E-07,9.74E-08,-5.18E-11,7.63E-08,1.251
1.72E-07,-4.64E-08,-5.32E-10,1.20E-10,-2.16E-11,1.84E-11,-4.53E-07,-1.59E-10,4.97E-07,1.24E-07,9.65E-08,-5.37E-11,7.86E-08,1.261
3.05E-07,-4.72E-08,-6.03E-10,1.15E-10,-5.85E-11,1.79E-11,-4.90E-07,-9.12E-11,3.68E-07,1.25E-07,9.61E-08,-5.49E-11,8.01E-08,1.271
-6.39E-07,-4.91E-08,-3.63E-10,1.09E-10,-8.92E-11,1.71E-11,9.86E-07,-1.06E-11,-1.48E-06,1.24E-07,9.50E-08,-5.56E-11,8.04E-08,1.281
-5.94E-07,-4.95E-08,-5.03E-10,1.06E-10,-1.18E-10,1.61E-11,4.29E-07,-9.49E-11,-1.42E-07,1.25E-07,9.53E-08,-5.58E-11,8.03E-08,1.291
-3.19E-07,-4.92E-08,-7.86E-10,9.83E-11,-1.14E-10,1.51E-11,3.10E-07,5.31E-11,-3.95E-07,1.25E-07,9.56E-08,-5.55E-11,7.99E-08,1.301
2.71E-07,-4.92E-08,-8.15E-10,9.03E-11,-1.12E-10,1.38E-11,-5.75E-07,8.19E-11,1.71E-07,1.24E-07,9.60E-08,-5.48E-11,7.88E-08,1.311
5.76E-07,-4.78E-08,-5.43E-10,8.46E-11,-1.32E-10,1.26E-11,-4.80E-07,1.20E-10,9.56E-08,1.22E-07,9.51E-08,-5.38E-11,7.70E-08,1.321
-7.60E-09,-4.69E-08,-8.93E-10,7.70E-11,-1.34E-10,1.12E-11,1.88E-07,1.67E-10,-6.70E-07,1.22E-07,9.59E-08,-5.23E-11,7.53E-08,1.331
-4.84E-07,-4.62E-08,-8.68E-10,6.82E-11,-1.37E-10,9.84E-12,5.07E-07,2.05E-10,-3.07E-07,1.22E-07,9.69E-08,-5.04E-11,7.33E-08,1.341
-6.24E-08,-4.46E-08,-8.62E-10,5.96E-11,-1.42E-10,8.42E-12,-1.33E-08,2.37E-10,5.47E-07,1.21E-07,9.79E-08,-4.82E-11,7.11E-08,1.351
4.15E-07,-4.28E-08,-8.38E-10,5.11E-11,-1.46E-10,6.99E-12,-2.37E-07,2.67E-10,1.86E-07,1.21E-07,9.91E-08,-4.57E-11,6.86E-08,1.361
5.70E-07,-4.00E-08,-7.96E-10,4.29E-11,-1.45E-10,5.57E-12,-3.61E-07,2.91E-10,4.43E-08,1.19E-07,9.94E-08,-4.30E-11,6.59E-08,1.371
3.04E-07,-3.76E-08,-7.44E-10,3.52E-11,-1.28E-10,4.22E-12,5.04E-07,3.09E-10,-1.12E-06,1.18E-07,9.98E-08,-4.00E-11,6.30E-08,1.381
-3.19E-07,-3.56E-08,-6.85E-10,2.81E-11,-1.09E-10,2.97E-12,1.15E-06,3.22E-10,-1.84E-06,1.17E-07,1.01E-07,-3.69E-11,6.00E-08,1.391
-1.25E-08,-3.44E-08,-6.31E-10,2.16E-11,-1.06E-10,1.84E-12,1.75E-08,3.23E-10,4.66E-07,1.17E-07,1.03E-07,-3.37E-11,5.67E-08,1.401
4.61E-07,-3.21E-08,-5.80E-10,1.55E-11,-9.98E-11,8.26E-13,-2.34E-07,3.25E-10,1.01E-07,1.17E-07,1.04E-07,-3.05E-11,5.33E-08,1.411
5.96E-07,-2.90E-08,-5.28E-10,1.00E-11,-8.92E-11,-7.45E-14,-3.64E-07,3.22E-10,-2.50E-08,1.16E-07,1.04E-07,-2.73E-11,4.99E-08,1.421
4.38E-07,-2.81E-08,-4.75E-10,5.06E-12,-7.14E-11,-7.92E-13,-1.88E-07,3.16E-10,1.17E-07,1.16E-07,1.07E-07,-2.41E-11,4.63E-08,1.431
1.04E-07,-2.68E-08,-4.23E-10,5.99E-13,-5.25E-11,-1.39E-12,4.55E-08,3.07E-10,3.79E-07,1.17E-07,1.08E-07,-2.10E-11,4.27E-08,1.441
1.09E-08,-2.30E-08,-3.73E-10,-3.37E-12,-4.17E-11,-1.90E-12,-5.04E-08,2.96E-10,4.11E-07,1.15E-07,1.08E-07,-1.80E-11,3.93E-08,1.451
4.37E-07,-2.09E-08,-3.29E-10,-6.86E-12,-3.44E-11,-2.26E-12,-2.52E-07,2.85E-10,9.39E-08,1.15E-07,1.09E-07,-1.51E-11,3.58E-08,1.461
6.77E-07,-1.82E-08,-2.84E-10,-9.89E-12,-2.66E-11,-2.52E-12,-4.37E-07,2.71E-10,-9.66E-08,1.15E-07,1.10E-07,-1.23E-11,3.23E-08,1.471
2.82E-07,-1.57E-08,-2.40E-10,-1.25E-11,-8.00E-12,-2.67E-12,4.84E-07,2.57E-10,-1.16E-06,1.14E-07,1.10E-07,-9.72E-12,2.90E-08,1.481
2.90E-07,-1.40E-08,-1.99E-10,-1.46E-11,-3.34E-12,-2.71E-12,-2.62E-07,2.40E-10,1.91E-07,1.14E-07,1.11E-07,-7.25E-12,2.57E-08,1.491
9.71E-08,-1.22E-08,-1.61E-10,-1.64E-11,1.05E-11,-2.68E-12,6.04E-07,2.24E-10,-1.01E-06,1.14E-07,1.12E-07,-4.94E-12,2.25E-08,1.501
-4.73E-07,-1.10E-08,-1.23E-10,-1.78E-11,2.14E-11,-2.56E-12,1.25E-06,2.09E-10,-1.76E-06,1.14E-07,1.12E-07,-2.80E-12,1.94E-08,1.511
-4.30E-07,-9.64E-09,-9.01E-11,-1.89E-11,2.33E-11,-2.38E-12,4.70E-07,1.91E-10,-4.24E-07,1.15E-07,1.14E-07,-8.18E-13,1.64E-08,1.521
4.75E-08,-8.24E-09,-3.15E-08,2.61E-11,-4.70E-08,2.23E-10,-8.16E-08,8.88E-09,4.11E-07,1.16E-07,1.15E-07,5.72E-12,1.35E-08,1.531
3.65E-07,-6.51E-09,1.89E-09,-1.91E-11,-8.92E-09,1.29E-11,-2.66E-07,4.80E-10,1.76E-07,1.16E-07,1.16E-07,9.43E-12,1.08E-08,1.541
4.90E-07,-4.47E-09,2.38E-10,-8.07E-12,-1.57E-09,-2.67E-11,-3.81E-07,-2.29E-11,7.67E-08,1.16E-07,1.16E-07,1.19E-11,8.26E-09,1.551
6.49E-07,-2.56E-09,-6.61E-10,-1.17E-11,4.35E-11,-3.17E-11,-5.27E-07,-1.09E-10,-4.72E-08,1.16E-07,1.16E-07,1.18E-11,5.89E-09,1.561
-4.82E-07,-2.14E-09,-7.22E-10,-1.90E-11,4.27E-10,-2.86E-11,1.19E-06,-1.02E-10,-1.72E-06,1.16E-07,1.16E-07,1.08E-11,3.70E-09,1.571
-5.02E-07,-1.41E-09,-5.21E-10,-2.52E-11,4.63E-10,-2.41E-11,4.54E-07,-5.60E-11,-3.34E-07,1.18E-07,1.18E-07,9.82E-12,1.62E-09,1.581
-1.55E-07,-4.06E-10,-2.75E-10,-2.91E-11,4.08E-10,-1.98E-11,-3.92E-08,-6.63E-12,6.00E-07,1.18E-07,1.18E-07,9.34E-12,-3.04E-10,1.591
2.99E-07,3.10E-10,-1.80E-10,-3.10E-11,3.40E-10,-1.61E-11,-2.60E-07,4.49E-11,2.78E-07,1.19E-07,1.19E-07,9.33E-12,-2.11E-09,1.601
4.35E-07,1.77E-09,4.06E-11,-3.15E-11,2.72E-10,-1.30E-11,-3.84E-07,6.02E-11,1.68E-07,1.19E-07,1.19E-07,9.66E-12,-3.70E-09,1.611
5.21E-07,3.21E-09,1.11E-10,-3.09E-11,2.26E-10,-1.05E-11,-4.75E-07,4.55E-11,9.73E-08,1.19E-07,1.19E-07,1.02E-11,-5.17E-09,1.621
1.30E-07,4.16E-09,1.50E-10,-2.95E-11,1.94E-10,-8.38E-12,4.71E-07,5.37E-11,-9.65E-07,1.19E-07,1.19E-07,1.08E-11,-6.51E-09,1.631
-6.14E-08,4.82E-09,1.62E-10,-2.79E-11,1.67E-10,-6.59E-12,1.18E-07,5.85E-11,-6.48E-07,1.19E-07,1.19E-07,1.14E-11,-7.78E-09,1.641
2.63E-07,5.32E-09,1.96E-10,-2.60E-11,1.44E-10,-5.04E-12,-3.42E-07,4.96E-11,3.08E-07,1.20E-07,1.19E-07,1.19E-11,-8.95E-09,1.651
-5.70E-08,5.84E-09,2.20E-10,-2.39E-11,1.29E-10,-3.69E-12,5.81E-07,3.74E-11,-8.04E-07,1.20E-07,1.19E-07,1.23E-11,-9.98E-09,1.661
2.34E-07,5.01E-09,2.35E-10,-2.16E-11,1.14E-10,-2.49E-12,-2.36E-07,2.37E-11,3.68E-07,1.22E-07,1.21E-07,1.27E-11,-1.10E-08,1.671
2.38E-07,6.18E-09,2.43E-10,-1.92E-11,1.03E-10,-1.41E-12,-3.06E-07,9.74E-12,3.52E-07,1.21E-07,1.21E-07,1.28E-11,-1.18E-08,1.681
2.09E-07,7.25E-09,2.46E-10,-1.68E-11,9.33E-11,-4.34E-13,-3.39E-07,-3.92E-12,3.67E-07,1.21E-07,1.20E-07,1.29E-11,-1.24E-08,1.691
-9.04E-08,7.39E-09,2.43E-10,-1.43E-11,8.55E-11,4.55E-13,5.81E-07,-1.66E-11,-7.58E-07,1.21E-07,1.20E-07,1.28E-11,-1.30E-08,1.701
-2.70E-07,7.34E-09,2.36E-10,-1.20E-11,7.79E-11,1.27E-12,2.53E-07,-2.80E-11,-4.43E-07,1.21E-07,1.20E-07,1.25E-11,-1.35E-08,1.711
-9.47E-09,7.49E-09,2.27E-10,-9.64E-12,7.08E-11,2.01E-12,-2.08E-07,-3.80E-11,5.56E-07,1.21E-07,1.20E-07,1.22E-11,-1.39E-08,1.721
1.78E-07,7.75E-09,2.16E-10,-7.42E-12,6.41E-11,2.68E-12,-3.18E-07,-4.64E-11,4.16E-07,1.21E-07,1.20E-07,1.18E-11,-1.42E-08,1.731
-3.10E-07,6.66E-09,2.03E-10,-5.34E-12,5.78E-11,3.28E-12,1.31E-08,-5.32E-11,8.11E-07,1.22E-07,1.21E-07,1.13E-11,-1.44E-08,1.741
-2.71E-07,7.22E-09,1.89E-10,-3.38E-12,5.17E-11,3.83E-12,-6.94E-08,-5.84E-11,7.72E-07,1.22E-07,1.21E-07,1.08E-11,-1.44E-08,1.751
-2.20E-08,7.11E-09,1.74E-10,-1.57E-12,4.59E-11,4.31E-12,-1.84E-07,-6.23E-11,5.93E-07,1.22E-07,1.21E-07,1.02E-11,-1.44E-08,1.761
1.69E-07,7.13E-09,1.59E-10,8.50E-14,4.04E-11,4.74E-12,-2.96E-07,-6.48E-11,4.52E-07,1.22E-07,1.21E-07,9.56E-12,-1.43E-08,1.771
3.04E-07,7.25E-09,1.43E-10,1.58E-12,3.52E-11,5.11E-12,-3.95E-07,-6.62E-11,3.48E-07,1.21E-07,1.21E-07,8.91E-12,-1.40E-08,1.781
3.98E-07,7.42E-09,1.27E-10,2.92E-12,3.03E-11,5.44E-12,-4.81E-07,-6.64E-11,2.74E-07,1.21E-07,1.20E-07,8.26E-12,-1.37E-08,1.791
-3.48E-07,7.27E-09,-1.46E-07,-3.13E-11,-4.90E-07,-1.75E-10,4.44E-07,-4.15E-08,-4.37E-07,1.20E-07,1.19E-07,1.51E-11,-1.33E-08,1.801
2.17E-07,6.92E-09,6.69E-08,1.75E-10,2.16E-07,2.48E-10,-3.80E-07,-1.92E-08,4.19E-07,1.20E-07,1.20E-07,7.26E-12,-1.29E-08,1.811
1.40E-08,6.16E-09,7.00E-08,-1.28E-10,1.33E-07,-5.85E-10,-2.39E-07,-1.78E-08,5.84E-07,1.20E-07,1.20E-07,-1.53E-11,-1.24E-08,1.821
1.38E-07,6.74E-09,-1.13E-08,1.84E-10,-1.08E-07,6.47E-10,6.04E-09,-2.07E-08,-2.04E-07,1.19E-07,1.19E-07,-9.80E-12,-1.18E-08,1.831
2.13E-07,6.03E-09,5.92E-08,-1.16E-10,1.26E-07,-4.70E-10,-3.87E-07,-1.49E-08,4.29E-07,1.20E-07,1.19E-07,-3.10E-11,-1.12E-08,1.841
-1.52E-07,5.59E-09,-1.31E-07,-3.59E-11,-2.62E-07,1.67E-10,-3.36E-08,-2.39E-08,1.13E-07,1.19E-07,1.19E-07,-2.29E-11,-1.06E-08,1.851
1.83E-08,5.22E-09,-7.01E-08,-1.27E-10,-1.87E-07,-2.32E-10,-2.76E-07,1.86E-08,5.81E-07,1.19E-07,1.18E-07,-1.76E-11,-9.87E-09,1.861
1.10E-07,5.08E-09,-6.56E-08,-1.01E-10,-1.75E-07,-3.01E-10,-3.44E-07,1.68E-08,5.09E-07,1.18E-07,1.18E-07,-1.10E-11,-9.14E-09,1.871
-1.74E-08,4.67E-09,-3.31E-08,-9.27E-11,4.94E-08,-1.43E-10,1.01E-07,3.11E-08,-7.35E-08,1.18E-07,1.17E-07,-5.17E-12,-8.40E-09,1.881
-4.06E-07,3.52E-09,-8.06E-08,-2.89E-11,-1.96E-07,-2.37E-10,1.34E-07,-3.54E-08,3.18E-07,1.18E-07,1.18E-07,2.28E-12,-7.65E-09,1.891
-7.04E-08,3.46E-09,5.33E-08,4.36E-10,6.83E-08,1.05E-09,1.49E-07,-3.70E-08,-2.64E-08,1.18E-07,1.17E-07,1.35E-11,-6.89E-09,1.901
-1.62E-07,3.08E-09,-3.69E-08,-1.30E-10,-1.60E-07,-4.58E-10,-1.94E-07,1.15E-08,7.20E-07,1.17E-07,1.17E-07,2.97E-12,-6.10E-09,1.911
-8.75E-08,2.92E-09,-9.77E-08,3.50E-11,-1.97E-07,-2.49E-10,-7.87E-08,-3.40E-08,6.68E-08,1.17E-07,1.17E-07,2.11E-12,-5.31E-09,1.921
-4.45E-07,2.28E-09,-9.49E-08,-1.52E-12,-2.06E-07,-2.03E-10,8.80E-07,-3.36E-08,-1.02E-06,1.16E-07,1.16E-07,-2.53E-12,-4.53E-09,1.931
-2.58E-07,2.01E-09,1.65E-07,2.56E-10,4.26E-07,5.78E-10,5.34E-09,1.34E-08,1.94E-07,1.16E-07,1.16E-07,-8.70E-12,-3.76E-09,1.941
9.80E-08,1.90E-09,-2.25E-08,-1.48E-10,4.89E-08,-1.71E-10,2.27E-08,2.95E-08,-1.64E-07,1.16E-07,1.16E-07,-1.43E-11,-3.02E-09,1.951
-1.91E-07,1.22E-09,7.84E-08,-5.63E-11,2.87E-07,-7.78E-11,3.57E-07,5.98E-08,-5.36E-07,1.15E-07,1.15E-07,-8.42E-12,-2.28E-09,1.961
5.36E-08,7.12E-10,-2.50E-08,-3.49E-10,1.99E-09,-1.24E-09,8.33E-08,2.86E-08,-1.24E-07,1.15E-07,1.15E-07,-2.12E-11,-1.59E-09,1.971
5.29E-08,1.60E-10,1.90E-08,2.61E-10,1.50E-07,6.79E-10,-2.83E-07,-9.46E-09,5.59E-07,1.15E-07,1.15E-07,-1.31E-11,-9.13E-10,1.981
6.20E-08,2.78E-10,7.99E-08,9.57E-11,1.87E-07,4.69E-10,-3.22E-07,-1.78E-08,5.40E-07,1.15E-07,1.15E-07,-1.41E-11,-2.25E-10,1.991
-6.99E-09,-1.74E-10,3.15E-08,1.51E-10,-4.97E-08,3.47E-10,1.07E-07,-3.11E-08,-8.46E-08,1.15E-07,1.15E-07,-8.04E-12,3.91E-10,2.001
9.90E-08,-2.39E-10,7.03E-09,1.87E-10,-8.53E-08,5.12E-10,3.72E-08,-2.55E-08,-1.73E-07,1.14E-07,1.14E-07,-1.10E-12,9.74E-10,2.011
-1.76E-07,-7.92E-10,-7.98E-08,1.08E-10,-2.96E-07,2.39E-10,3.60E-07,-5.78E-08,-5.57E-07,1.14E-07,1.14E-07,4.76E-12,1.50E-09,2.021
-6.20E-08,-1.50E-09,-4.24E-08,3.31E-10,3.20E-08,1.16E-09,-3.89E-08,-4.79E-08,4.33E-08,1.14E-07,1.14E-07,2.12E-11,1.94E-09,2.031
-3.20E-07,-1.27E-09,1.48E-07,8.62E-11,4.37E-07,3.68E-10,4.27E-07,4.10E-08,-4.55E-07,1.14E-07,1.14E-07,2.37E-11,2.40E-09,2.041
2.74E-08,-1.06E-09,-9.16E-09,5.11E-11,-6.90E-08,2.23E-10,4.35E-07,5.89E-09,-8.12E-07,1.13E-07,1.13E-07,4.31E-11,2.76E-09,2.051
-6.65E-09,-2.01E-09,9.75E-08,3.79E-10,3.27E-07,8.43E-10,-2.32E-07,-3.24E-08,5.85E-07,1.14E-07,1.14E-07,4.89E-11,3.05E-09,2.061
-6.68E-07,-2.18E-09,-3.39E-08,-1.08E-10,3.80E-09,-2.01E-10,8.08E-07,3.50E-08,-7.85E-07,1.13E-07,1.13E-07,4.44E-11,3.37E-09,2.071
-6.48E-07,-2.42E-09,-1.16E-09,3.23E-11,1.72E-09,-1.84E-10,4.23E-07,-1.74E-09,-1.22E-07,1.14E-07,1.14E-07,4.30E-11,3.59E-09,2.081
-2.89E-07,-2.84E-09,-4.74E-09,-8.37E-12,2.34E-09,-1.63E-10,-4.93E-08,-1.10E-09,7.99E-07,1.14E-07,1.14E-07,3.26E-11,3.73E-09,2.091
-1.73E-08,-2.97E-09,-3.66E-09,-5.07E-11,2.43E-09,-1.39E-10,-1.79E-07,-7.72E-10,5.96E-07,1.14E-07,1.14E-07,2.24E-11,3.84E-09,2.101
1.80E-07,-2.87E-09,-2.21E-09,-7.93E-11,2.14E-09,-1.16E-10,-2.93E-07,-4.16E-10,4.43E-07,1.14E-07,1.14E-07,1.55E-11,3.94E-09,2.111
4.38E-08,-1.97E-09,-6.78E-08,7.54E-12,-9.38E-08,3.61E-10,-1.27E-07,-3.93E-08,-6.90E-08,1.13E-07,1.13E-07,2.15E-11,4.08E-09,2.121
-4.16E-08,-2.03E-09,-5.13E-08,-5.81E-11,-2.65E-07,-9.16E-11,1.49E-07,-7.74E-09,-9.00E-08,1.13E-07,1.13E-07,2.36E-11,4.11E-09,2.131
-1.45E-07,-1.98E-09,-1.89E-08,-5.14E-11,-3.07E-08,3.93E-11,5.80E-07,5.33E-09,-6.94E-07,1.12E-07,1.12E-07,2.49E-11,4.12E-09,2.141
-3.88E-07,-2.25E-09,7.61E-08,1.83E-11,1.75E-07,3.06E-10,8.86E-07,3.64E-08,-1.10E-06,1.13E-07,1.12E-07,2.91E-11,4.08E-09,2.151
-1.15E-06,-1.20E-08,-2.10E-08,3.50E-11,-2.01E-07,7.55E-10,-1.98E-07,-1.24E-08,4.20E-08,1.14E-07,1.14E-07,5.51E-11,2.65E-10,2.161
-4.68E-07,-1.62E-08,-2.58E-08,9.13E-11,-2.40E-07,8.77E-10,-4.94E-07,-1.29E-08,-5.18E-07,1.13E-07,1.13E-07,7.82E-11,-5.12E-09,2.171
-2.51E-07,-2.06E-08,-2.44E-08,1.15E-10,-2.20E-07,7.13E-10,-7.09E-07,-1.40E-08,-6.81E-07,1.13E-07,1.13E-07,9.11E-11,-1.05E-08,2.181
-6.48E-07,-2.51E-08,-7.24E-09,8.86E-11,-1.19E-07,1.37E-10,3.86E-07,1.12E-09,-1.10E-06,1.13E-07,1.12E-07,9.33E-11,-1.58E-08,2.191
-5.45E-07,-2.95E-08,1.98E-08,1.00E-10,7.74E-08,3.94E-10,2.82E-07,1.61E-08,-9.63E-07,1.14E-07,1.12E-07,1.03E-10,-2.08E-08,2.201
-6.14E-07,-3.30E-08,-2.17E-08,9.19E-11,-7.06E-08,-1.97E-10,7.63E-07,-1.57E-08,-8.82E-07,1.15E-07,1.12E-07,9.57E-11,-2.53E-08,2.211
-2.74E-07,-3.61E-08,-4.88E-08,6.61E-11,-1.99E-08,3.55E-10,-7.42E-08,-2.34E-08,-2.53E-07,1.16E-07,1.12E-07,1.01E-10,-2.93E-08,2.221
-1.18E-07,-3.80E-08,1.37E-10,1.11E-12,-1.48E-07,1.34E-10,-3.63E-07,1.54E-08,4.02E-07,1.17E-07,1.12E-07,9.69E-11,-3.26E-08,2.231
-1.25E-07,-3.96E-08,-2.02E-08,7.73E-12,2.36E-07,3.33E-10,-1.09E-07,-8.08E-09,4.93E-07,1.18E-07,1.12E-07,9.04E-11,-3.54E-08,2.241
-7.33E-08,-3.98E-08,1.02E-08,-1.69E-11,1.04E-07,1.36E-10,3.08E-07,-1.48E-09,-7.69E-07,1.17E-07,1.11E-07,8.83E-11,-3.77E-08,2.251
-3.42E-07,-4.03E-08,3.50E-09,-2.27E-11,8.10E-08,2.41E-10,6.14E-07,-4.32E-10,-4.15E-07,1.18E-07,1.11E-07,8.86E-11,-3.93E-08,2.261
1.82E-07,-3.99E-08,-2.19E-08,-5.32E-11,-1.31E-07,-1.86E-11,-3.10E-07,-3.43E-08,-1.00E-07,1.19E-07,1.12E-07,8.69E-11,-4.05E-08,2.271
1.15E-07,-3.90E-08,-3.68E-08,-9.89E-11,-3.60E-07,-1.88E-10,-3.25E-07,-1.63E-08,-1.26E-08,1.19E-07,1.12E-07,8.85E-11,-4.12E-08,2.281
3.67E-08,-3.76E-08,-5.66E-09,-1.09E-10,-1.39E-07,-4.78E-12,3.95E-07,1.72E-08,-5.58E-07,1.19E-07,1.12E-07,8.90E-11,-4.14E-08,2.291
2.45E-07,-3.56E-08,-3.65E-08,-1.07E-10,-2.39E-08,2.41E-10,9.91E-08,-2.53E-08,5.80E-09,1.19E-07,1.12E-07,9.27E-11,-4.13E-08,2.301
1.73E-07,-3.36E-08,6.12E-09,-9.17E-11,1.18E-07,-1.93E-12,-1.89E-07,1.75E-08,1.37E-07,1.19E-07,1.12E-07,8.54E-11,-4.07E-08,2.311
3.45E-07,-3.10E-08,3.24E-08,-8.36E-11,-5.40E-08,1.48E-11,-2.94E-07,2.40E-08,1.21E-07,1.19E-07,1.12E-07,8.86E-11,-3.98E-08,2.321
5.10E-07,-2.81E-08,1.25E-08,-1.14E-10,1.35E-07,-1.01E-10,-3.80E-07,1.67E-08,-8.03E-08,1.19E-07,1.13E-07,8.37E-11,-3.85E-08,2.331
-2.27E-08,-2.56E-08,-3.34E-08,-1.36E-10,2.17E-08,-9.97E-12,7.44E-07,-8.15E-09,-2.45E-07,1.18E-07,1.12E-07,8.65E-11,-3.70E-08,2.341
3.63E-07,-2.23E-08,3.71E-08,-8.96E-11,-6.49E-08,6.27E-11,-1.64E-07,2.21E-08,2.05E-07,1.18E-07,1.13E-07,8.77E-11,-3.52E-08,2.351
3.14E-07,-1.92E-08,-1.29E-08,-1.00E-10,-1.91E-07,2.22E-10,4.03E-08,1.21E-09,2.43E-07,1.18E-07,1.13E-07,9.03E-11,-3.33E-08,2.361
3.64E-07,-1.57E-08,5.57E-08,-6.61E-11,1.96E-07,6.14E-11,5.16E-08,2.45E-08,1.83E-07,1.17E-07,1.13E-07,7.92E-11,-3.11E-08,2.371
1.22E-07,-1.29E-08,1.80E-09,-7.59E-11,-2.38E-07,-3.81E-10,5.26E-07,-8.13E-09,-1.78E-07,1.16E-07,1.13E-07,7.84E-11,-2.89E-08,2.381
8.75E-07,-6.10E-09,-3.13E-10,-8.77E-12,2.35E-08,-1.49E-11,-2.12E-07,-4.34E-08,3.23E-07,1.15E-07,1.12E-07,7.14E-11,-2.57E-08,2.391
8.99E-07,-1.91E-10,5.67E-08,3.27E-10,-3.48E-08,-6.49E-11,-8.18E-07,-6.06E-10,1.22E-06,1.13E-07,1.11E-07,4.62E-11,-2.09E-08,2.401
2.37E-07,4.65E-09,-4.28E-09,5.98E-10,1.11E-07,9.12E-11,8.98E-07,-1.08E-08,-8.78E-07,1.14E-07,1.13E-07,3.37E-13,-1.58E-08,2.411
3.34E-07,7.24E-09,-7.76E-09,5.94E-10,1.00E-07,1.58E-10,-1.25E-07,-7.99E-09,1.60E-06,1.17E-07,1.17E-07,-3.69E-11,-1.06E-08,2.421
7.71E-07,1.16E-08,8.78E-09,4.32E-10,-1.45E-07,-7.30E-10,-5.38E-07,3.63E-08,1.14E-06,1.19E-07,1.19E-07,-8.65E-11,-5.59E-09,2.431
1.67E-07,1.52E-08,-1.56E-07,5.39E-10,-2.84E-07,-1.65E-11,8.22E-07,-3.04E-08,-3.87E-07,1.20E-07,1.20E-07,-1.06E-10,-1.20E-09,2.441
2.78E-07,1.66E-08,3.48E-08,6.03E-10,2.47E-07,7.42E-10,-4.34E-07,1.52E-08,1.32E-06,1.22E-07,1.22E-07,-1.33E-10,2.30E-09,2.451
3.46E-07,1.84E-08,-2.72E-08,7.90E-11,1.67E-08,-2.18E-10,-2.52E-07,4.84E-08,5.04E-07,1.22E-07,1.22E-07,-1.49E-10,4.79E-09,2.461
-7.64E-07,1.81E-08,-6.98E-09,5.83E-11,1.24E-07,8.57E-11,1.06E-06,4.19E-09,-6.61E-07,1.23E-07,1.23E-07,-1.44E-10,6.66E-09,2.471
4.86E-07,1.86E-08,1.47E-08,1.00E-10,-6.84E-09,-9.55E-11,-9.64E-07,5.29E-09,8.71E-07,1.23E-07,1.23E-07,-1.41E-10,7.52E-09,2.481
-4.59E-07,1.69E-08,4.21E-09,2.44E-10,1.34E-08,-1.83E-10,7.89E-08,-5.42E-09,3.95E-07,1.22E-07,1.22E-07,-1.45E-10,7.88E-09,2.491
-2.42E-07,1.56E-08,4.16E-08,2.84E-10,-9.63E-09,-3.01E-11,-5.64E-08,7.56E-09,2.18E-08,1.22E-07,1.21E-07,-1.47E-10,7.64E-09,2.501
-1.23E-07,1.42E-08,8.35E-09,2.48E-10,3.13E-08,-2.15E-10,-1.23E-07,2.17E-08,-5.32E-07,1.21E-07,1.20E-07,-1.64E-10,7.27E-09,2.511
-2.79E-07,1.23E-08,-1.76E-09,1.22E-10,-8.64E-08,-4.04E-10,-3.75E-07,-5.60E-09,1.55E-07,1.20E-07,1.20E-07,-1.67E-10,6.71E-09,2.521
-5.58E-07,1.03E-08,-3.11E-08,6.51E-11,2.53E-08,-9.64E-11,5.98E-07,-1.15E-08,-5.46E-07,1.19E-07,1.19E-07,-1.69E-10,6.06E-09,2.531
-4.18E-07,8.33E-09,-5.68E-09,-2.25E-11,3.82E-08,-1.46E-10,2.71E-07,1.02E-08,-5.44E-07,1.19E-07,1.19E-07,-1.66E-10,5.45E-09,2.541
-3.11E-07,6.55E-09,5.11E-09,-1.19E-10,-6.65E-08,-4.41E-10,3.42E-08,2.45E-08,3.08E-08,1.18E-07,1.18E-07,-1.56E-10,4.90E-09,2.551
-6.32E-08,4.63E-09,-2.14E-08,-1.43E-10,1.63E-08,6.28E-12,-3.04E-07,-2.17E-08,5.42E-07,1.19E-07,1.19E-07,-1.35E-10,4.35E-09,2.561
2.66E-08,3.32E-09,-8.69E-09,-2.04E-10,6.09E-08,-2.05E-10,-6.12E-07,1.13E-08,4.72E-07,1.19E-07,1.19E-07,-1.21E-10,3.92E-09,2.571
1.58E-07,2.24E-09,1.51E-08,-2.11E-10,-1.18E-07,-1.44E-10,-6.90E-07,1.27E-08,5.16E-07,1.18E-07,1.18E-07,-9.51E-11,3.56E-09,2.581
-2.05E-07,9.37E-10,-1.87E-08,-2.09E-10,-5.77E-09,1.33E-10,1.33E-07,-2.94E-08,6.88E-08,1.18E-07,1.18E-07,-6.88E-11,3.25E-09,2.591
-4.33E-08,9.67E-11,2.29E-08,-2.32E-10,-9.82E-08,-2.42E-10,5.80E-08,2.94E-08,-6.29E-08,1.18E-07,1.18E-07,-5.04E-11,2.99E-09,2.601
-1.10E-07,-8.06E-10,-7.97E-09,-2.26E-10,-3.68E-07,-1.94E-10,7.13E-08,-3.39E-09,4.25E-08,1.17E-07,1.17E-07,-2.45E-11,2.78E-09,2.611
1.48E-07,-1.57E-09,-2.71E-08,-2.54E-10,-1.72E-07,-3.37E-10,-3.13E-07,6.80E-09,6.13E-07,1.18E-07,1.18E-07,-1.28E-11,2.58E-09,2.621
-4.49E-08,-2.00E-09,-4.72E-09,-2.35E-10,6.41E-08,-2.12E-10,-1.37E-07,2.29E-08,-4.25E-08,1.18E-07,1.18E-07,8.20E-13,2.45E-09,2.631
1.20E-07,-2.20E-09,2.57E-08,-2.30E-10,-7.62E-08,-3.41E-10,-1.51E-07,2.87E-08,-1.13E-07,1.18E-07,1.18E-07,1.43E-11,2.33E-09,2.641
3.40E-08,-2.54E-09,2.17E-08,-2.15E-10,2.57E-07,1.30E-10,1.10E-07,1.88E-08,2.61E-08,1.17E-07,1.17E-07,2.79E-11,2.24E-09,2.651
1.70E-08,-3.03E-09,-4.84E-09,-2.25E-10,1.91E-08,2.88E-11,-1.64E-07,3.16E-09,7.71E-07,1.18E-07,1.18E-07,3.95E-11,2.12E-09,2.661
-1.39E-07,-3.19E-09,-3.57E-08,-2.31E-10,-1.79E-07,-2.79E-10,3.35E-08,-2.93E-08,1.61E-07,1.18E-07,1.18E-07,4.62E-11,2.03E-09,2.671
-2.55E-08,-3.07E-09,6.47E-09,-1.90E-10,2.70E-07,8.35E-11,1.96E-07,3.52E-09,-1.32E-08,1.18E-07,1.18E-07,5.24E-11,1.92E-09,2.681
1.60E-07,-3.08E-09,2.10E-08,-2.06E-10,2.64E-07,1.16E-10,-1.33E-07,1.88E-08,-3.71E-08,1.18E-07,1.18E-07,6.09E-11,1.81E-09,2.691
3.78E-08,-3.16E-09,9.29E-10,-2.21E-10,4.16E-08,-7.20E-11,-1.37E-07,2.01E-08,9.97E-08,1.18E-07,1.18E-07,6.74E-11,1.71E-09,2.701
-3.17E-07,-3.43E-09,-6.47E-09,-1.93E-10,2.16E-08,3.24E-11,3.81E-07,3.48E-09,-4.44E-07,1.18E-07,1.18E-07,7.43E-11,1.60E-09,2.711
-2.01E-07,-3.24E-09,9.25E-09,-1.56E-10,-1.22E-07,-8.40E-11,2.95E-07,-6.02E-09,-5.57E-07,1.18E-07,1.18E-07,7.85E-11,1.50E-09,2.721
2.14E-07,-2.86E-09,1.45E-08,-1.53E-10,2.52E-07,1.83E-10,-3.22E-07,2.02E-08,-4.94E-08,1.18E-07,1.18E-07,7.94E-11,1.39E-09,2.731
-1.28E-07,-3.11E-09,1.40E-08,-1.38E-10,2.74E-07,7.86E-11,-4.02E-09,2.04E-08,8.64E-08,1.18E-07,1.18E-07,7.89E-11,1.29E-09,2.741
7.71E-08,-3.01E-09,-8.69E-09,-1.39E-10,-3.77E-07,-9.84E-11,-1.63E-07,-5.07E-09,-5.15E-09,1.18E-07,1.18E-07,8.60E-11,1.18E-09,2.751
-1.27E-07,-2.69E-09,-5.42E-09,-1.41E-10,7.46E-08,-2.01E-10,3.73E-07,-1.60E-08,-5.60E-07,1.17E-07,1.17E-07,7.30E-11,1.11E-09,2.761
4.25E-08,-2.53E-09,-6.21E-09,-1.24E-10,1.20E-08,1.23E-10,-1.81E-07,-1.55E-08,-5.98E-08,1.18E-07,1.18E-07,7.54E-11,1.01E-09,2.771
1.91E-08,-2.56E-09,-5.79E-09,-1.17E-10,-3.59E-07,-1.56E-10,3.46E-08,-5.34E-09,2.41E-08,1.18E-07,1.18E-07,7.42E-11,9.18E-10,2.781
1.09E-07,-2.16E-09,-3.39E-08,-1.09E-10,-1.70E-07,-2.62E-10,-3.80E-08,-3.03E-08,-7.20E-08,1.18E-07,1.18E-07,6.73E-11,8.44E-10,2.791
-0.000935971,-2.36E-06,-1.42E-08,-5.90E-11,7.40E-08,4.43E-10,-0.00012225,-2.26E-09,0.000340668,8.65E-08,8.65E-08,7.27E-11,-1.17E-09,2.801
-0.003266432,-2.82E-05,1.01E-08,-1.09E-10,5.69E-08,-1.13E-10,-0.000353424,1.88E-09,0.000641269,8.73E-07,-8.01E-07,4.92E-11,-3.45E-07,2.811
-0.005017014,-7.32E-05,-4.42E-07,-5.10E-10,-2.72E-08,-2.33E-11,-0.000456401,-2.68E-07,0.000612364,3.11E-06,-2.80E-06,4.03E-11,-1.36E-06,2.821
-0.006579105,-0.000134648,5.00E-08,5.63E-10,1.13E-08,1.68E-12,-0.00055965,-5.85E-09,0.000575994,6.48E-06,-5.76E-06,1.87E-11,-2.98E-06,2.831
-0.007973005,-0.000210745,3.50E-08,9.49E-10,-8.30E-10,-3.00E-11,-0.000660805,-5.02E-09,0.000558535,1.09E-05,-9.64E-06,-1.79E-11,-5.17E-06,2.841
-0.009174244,-0.000299688,2.95E-08,1.27E-09,2.49E-10,-5.76E-12,-0.000764423,-7.50E-09,0.000549715,1.64E-05,-1.45E-05,-7.52E-11,-7.82E-06,2.851
-0.010173005,-0.000399512,2.22E-08,1.53E-09,1.07E-09,-3.21E-12,-0.000875304,-9.49E-09,0.000563312,2.30E-05,-2.03E-05,-1.55E-10,-1.08E-05,2.861
-0.010969164,-0.000508204,1.50E-08,1.71E-09,8.17E-10,6.21E-12,-0.000996645,-1.06E-08,0.000604793,3.05E-05,-2.71E-05,-2.51E-10,-1.39E-05,2.871
-0.011566164,-0.000623759,8.86E-09,1.83E-09,9.03E-10,1.51E-11,-0.001124509,-1.10E-08,0.000658556,3.90E-05,-3.50E-05,-3.55E-10,-1.70E-05,2.881
-0.040832069,-0.00087383,3.67E-09,1.88E-09,2.47E-09,3.15E-11,-0.003296111,-1.11E-08,0.003834488,5.10E-05,-4.67E-05,-4.61E-10,-2.04E-05,2.891
-0.03524816,-0.001237484,-6.50E-10,1.90E-09,2.00E-09,5.29E-11,-0.002652901,-1.02E-08,-0.000911085,7.64E-05,-7.07E-05,-5.63E-10,-2.89E-05,2.901
-0.036517456,-0.001596162,-4.24E-09,1.87E-09,1.98E-09,7.28E-11,-0.003238829,-9.30E-09,-0.001040487,0.000106831,-9.99E-05,-6.59E-10,-3.79E-05,2.911
-0.034604035,-0.001949001,-7.20E-09,1.81E-09,1.78E-09,9.14E-11,-0.00389053,-8.19E-09,-0.000525943,0.000142863,-0.000135131,-7.46E-10,-4.64E-05,2.921
-0.217094153,-0.002682876,-1.97E-08,1.71E-09,7.35E-09,1.20E-10,0.089955337,-3.48E-09,-0.124703862,0.00014825,-0.000137703,-8.21E-10,-5.49E-05,2.931
-0.734577715,-0.007976848,-9.18E-08,1.08E-09,4.04E-08,3.64E-10,0.913154841,-6.98E-09,-0.096136779,0.003932351,0.003925751,-8.99E-10,-0.000227739,2.941
-0.789491773,-0.015736382,-1.17E-07,5.39E-11,2.81E-08,7.93E-10,1.238354921,-1.83E-08,-0.063888125,0.014759187,0.014743583,-1.01E-09,-0.000678482,2.951
-0.818401098,-0.02388268,-1.32E-07,-1.27E-09,1.34E-08,9.35E-10,1.512708187,-1.25E-08,-0.062738992,0.02843304,0.028403729,-1.18E-09,-0.001290713,2.961
-0.772859514,-0.031813409,-9.31E-08,-2.38E-09,-3.76E-09,1.00E-09,1.701155066,8.53E-09,-0.071358524,0.044508874,0.044461675,-1.23E-09,-0.00204926,2.971
-0.705994248,-0.039215099,-6.98E-08,-3.15E-09,-1.33E-09,9.61E-10,1.820019484,1.38E-08,-0.071878649,0.062162224,0.062093318,-1.11E-09,-0.002926044,2.981
-0.611444295,-0.045761883,-7.57E-08,-3.89E-09,2.64E-09,9.68E-10,1.900405407,3.19E-09,-0.077540502,0.080828153,0.080733649,-1.00E-09,-0.003907439,2.991
-0.504420936,-0.051297989,-5.35E-08,-4.54E-09,5.43E-09,1.02E-09,1.953208089,4.74E-09,-0.080927357,0.100177661,0.100054011,-9.67E-10,-0.004975767,3.001
-0.391385377,-0.055721499,-3.03E-08,-4.94E-09,2.90E-09,1.06E-09,1.990585923,-1.25E-09,-0.084303088,0.119986467,0.11983075,-9.31E-10,-0.006111018,3.011
-0.2780689,-0.059010282,-4.66E-09,-5.07E-09,5.89E-09,1.10E-09,2.016941547,-1.31E-08,-0.085458398,0.140116811,0.139927194,-9.81E-10,-0.007287249,3.021
-0.169207171,-0.061187357,-2.31E-08,-5.26E-09,-1.72E-08,1.05E-09,2.036852598,-4.36E-08,-0.08379209,0.160477176,0.160253465,-1.24E-09,-0.008470692,3.031
-0.067637824,-0.062313199,6.71E-09,-5.31E-09,-3.44E-08,8.01E-10,2.052074671,-6.66E-08,-0.078514062,0.181006208,0.18075034,-1.80E-09,-0.009620878,3.041
0.024500443,-0.062473804,7.83E-09,-5.30E-09,-5.70E-08,3.07E-10,2.063596964,-1.06E-07,-0.068924159,0.201659739,0.201376095,-2.70E-09,-0.010691948,3.051
0.099898532,-0.061788,-7.65E-09,-5.37E-09,-9.94E-08,-5.18E-10,2.076385498,-1.54E-07,-0.05535819,0.222408444,0.222104102,-4.05E-09,-0.011631343,3.061
0.161281675,-0.060449395,-1.12E-08,-5.53E-09,-1.40E-07,-1.71E-09,2.078743458,-2.02E-07,-0.024317984,0.243232325,0.242919937,-5.93E-09,-0.012323596,3.071
0.212341651,-0.058547076,-6.29E-08,-6.66E-09,-1.96E-07,-3.44E-09,2.081783295,-2.44E-07,0.006730357,0.26405251,0.263747096,-8.39E-09,-0.012696,3.081
0.252975285,-0.056191124,-9.93E-08,-7.49E-09,-2.42E-07,-5.71E-09,2.082444906,-3.15E-07,0.038773764,0.284873337,0.284588546,-1.13E-08,-0.012735278,3.091
0.283413976,-0.053487103,-1.85E-07,-9.21E-09,-3.18E-07,-8.61E-09,2.082759857,-3.82E-07,0.071068265,0.30568096,0.305427969,-1.50E-08,-0.012434176,3.101
0.306619972,-0.050518889,-3.03E-07,-1.19E-08,-4.14E-07,-1.23E-08,2.081954956,-4.76E-07,0.101649411,0.326473683,0.326260328,-1.95E-08,-0.011801224,3.111
0.32339868,-0.047356289,-4.49E-07,-1.60E-08,-5.30E-07,-1.72E-08,2.081110716,-5.88E-07,0.129398465,0.347253174,0.347083271,-2.50E-08,-0.010860895,3.121
0.334662587,-0.044055689,-6.32E-07,-2.19E-08,-6.87E-07,-2.34E-08,2.080161572,-7.33E-07,0.152982459,0.368019134,0.367892653,-3.19E-08,-0.00964801,3.131
0.341271043,-0.040669091,-8.57E-07,-2.99E-08,-8.80E-07,-3.14E-08,2.079054356,-9.12E-07,0.172353715,0.388777256,0.38869068,-4.04E-08,-0.008203748,3.141
0.343576849,-0.037240449,-1.12E-06,-4.04E-08,-1.12E-06,-4.16E-08,2.078013659,-1.14E-06,0.18712306,0.409528822,0.409476072,-5.11E-08,-0.006572356,3.151
0.342128009,-0.033809546,-1.42E-06,-5.39E-08,-1.41E-06,-5.45E-08,2.076864243,-1.42E-06,0.197299779,0.4302755,0.430248737,-6.43E-08,-0.004799128,3.161
0.337195486,-0.030412804,-1.77E-06,-7.09E-08,-1.75E-06,-7.05E-08,2.075805664,-1.76E-06,0.203085095,0.451018661,0.451009154,-8.07E-08,-0.002928706,3.171
0.329164207,-0.027082564,-2.16E-06,-9.16E-08,-2.15E-06,-9.04E-08,2.074730158,-2.17E-06,0.204668477,0.471758485,0.471757442,-1.01E-07,-0.001003847,3.181
0.31588161,-0.023853322,-2.55E-06,-1.16E-07,-2.67E-06,-1.15E-07,2.07860589,-2.66E-06,0.200436771,0.492499024,0.49249813,-1.26E-07,0.00093526,3.191
0.304861188,-0.020762239,-3.05E-06,-1.46E-07,-3.17E-06,-1.44E-07,2.075441599,-3.25E-06,0.197104231,0.513288379,0.513280451,-1.56E-07,0.002850053,3.201
0.288437218,-0.017804028,-3.50E-06,-1.80E-07,-3.78E-06,-1.80E-07,2.075856447,-3.93E-06,0.187981904,0.534052014,0.534031212,-1.93E-07,0.00471013,3.211
0.271625817,-0.01500805,-4.03E-06,-2.20E-07,-4.49E-06,-2.22E-07,2.074027061,-4.74E-06,0.17604059,0.554806531,0.554768622,-2.37E-07,0.006485099,3.221
0.253097355,-0.012393098,-4.59E-06,-2.65E-07,-5.30E-06,-2.71E-07,2.072395325,-5.66E-06,0.162370652,0.575549424,0.575491726,-2.90E-07,0.008149344,3.231
0.233167201,-0.009971187,-5.18E-06,-3.17E-07,-6.19E-06,-3.30E-07,2.071039915,-6.73E-06,0.146627799,0.596277475,0.596198857,-3.52E-07,0.009680958,3.241
0.201101974,-0.007804176,-5.45E-06,-3.70E-07,-7.04E-06,-3.96E-07,2.070668936,-8.31E-06,0.114572562,0.616990387,0.616892278,-4.28E-07,0.011001095,3.251
0.166816756,-0.005982668,-6.01E-06,-4.31E-07,-8.26E-06,-4.74E-07,2.068093061,-9.63E-06,0.087961592,0.637678862,0.637564778,-5.18E-07,0.012060769,3.261
0.133580148,-0.004498547,-6.46E-06,-4.97E-07,-9.52E-06,-5.64E-07,2.06577754,-1.13E-05,0.061027501,0.658340573,0.658214986,-6.22E-07,0.01285818,3.271
0.102546096,-0.003335899,-7.23E-06,-5.69E-07,-1.09E-05,-6.67E-07,2.063738108,-1.31E-05,0.035330128,0.678976953,0.678844869,-7.44E-07,0.013394175,3.281
0.074983768,-0.002465228,-7.90E-06,-6.49E-07,-1.24E-05,-7.86E-07,2.061917782,-1.51E-05,0.011582537,0.699590802,0.699457049,-8.85E-07,0.013680446,3.291
0.051463921,-0.001848156,-8.67E-06,-7.36E-07,-1.41E-05,-9.20E-07,2.060313225,-1.74E-05,-0.009944296,0.72018528,0.720054269,-1.05E-06,0.013735007,3.301
0.032025743,-0.001443716,-9.52E-06,-8.32E-07,-1.60E-05,-1.07E-06,2.05892992,-1.99E-05,-0.029178163,0.740763366,0.740638912,-1.23E-06,0.013578903,3.311
0.016409507,-0.001212347,-1.04E-05,-9.37E-07,-1.80E-05,-1.24E-06,2.057758093,-2.26E-05,-0.046146225,0.761328042,0.761213005,-1.44E-06,0.013234271,3.321
0.004212904,-0.001117971,-1.13E-05,-1.05E-06,-2.02E-05,-1.44E-06,2.056775093,-2.56E-05,-0.060928151,0.781881988,0.781778455,-1.68E-06,0.012723235,3.331
-0.00501633,-0.001128863,-1.23E-05,-1.18E-06,-2.26E-05,-1.65E-06,2.05595541,-2.89E-05,-0.073633008,0.802427352,0.802336633,-1.94E-06,0.01206728,3.341
-0.011728588,-0.00121784,-1.33E-05,-1.31E-06,-2.52E-05,-1.90E-06,2.055272818,-3.26E-05,-0.084387355,0.822966218,0.822888851,-2.24E-06,0.01128688,3.351
-0.016344324,-0.001362079,-1.44E-05,-1.46E-06,-2.80E-05,-2.16E-06,2.054703712,-3.66E-05,-0.093328737,0.843500197,0.843436062,-2.58E-06,0.010401287,3.361
-0.019243438,-0.00154274,-1.55E-05,-1.62E-06,-3.11E-05,-2.46E-06,2.054227114,-4.09E-05,-0.100600526,0.8640306,0.863979161,-2.96E-06,0.009428391,3.371
-0.02075918,-0.001744526,-1.67E-05,-1.79E-06,-3.44E-05,-2.79E-06,2.053824425,-4.56E-05,-0.106348991,0.88455838,0.884518683,-3.38E-06,0.008384655,3.381
-0.021179654,-0.001955227,-1.80E-05,-1.97E-06,-3.80E-05,-3.16E-06,2.053480625,-5.08E-05,-0.110719331,0.905084491,0.905055165,-3.84E-06,0.007285088,3.391
-0.020750007,-0.002165271,-1.92E-05,-2.16E-06,-4.18E-05,-3.56E-06,2.053182364,-5.63E-05,-0.113854326,0.925609291,0.925588906,-4.36E-06,0.006143252,3.401
-0.019676633,-0.002367323,-2.06E-05,-2.37E-06,-4.59E-05,-4.00E-06,2.052919388,-6.23E-05,-0.115892164,0.946133375,0.946120322,-4.93E-06,0.00497129,3.411
-0.018131521,-0.002555917,-2.20E-05,-2.60E-06,-5.03E-05,-4.49E-06,2.052683115,-6.88E-05,-0.116964936,0.966656864,0.966649473,-5.56E-06,0.003779978,3.421
-0.016256621,-0.002727141,-2.34E-05,-2.84E-06,-5.50E-05,-5.02E-06,2.052466393,-7.58E-05,-0.117197469,0.987179875,0.987176538,-6.25E-06,0.002578788,3.431
-0.014165262,-0.002878351,-2.55E-05,-3.09E-06,-6.00E-05,-5.60E-06,2.052258492,-8.37E-05,-0.116701752,1.007702589,1.007701635,-7.00E-06,0.001375964,3.441
-0.011958525,-0.003007911,-3.95E-05,-3.43E-06,-6.97E-05,-6.25E-06,2.052064896,-9.75E-05,-0.115598813,1.028224707,1.028224587,-7.85E-06,0.000178606,3.451
-0.009704835,-0.003115098,-4.66E-05,-3.89E-06,-8.08E-05,-7.01E-06,2.051878452,-0.000110182,-0.113977917,1.048746347,1.048745871,-8.84E-06,-0.001007251,3.461
-0.007465562,-0.003199791,-4.78E-05,-4.38E-06,-9.11E-05,-7.88E-06,2.051696301,-0.000121821,-0.111930385,1.069267273,1.069265127,-9.94E-06,-0.002176536,3.471
-0.005286566,-0.003262394,-5.08E-05,-4.90E-06,-0.000101034,-8.85E-06,2.051516533,-0.000135385,-0.109538429,1.089787602,1.089782476,-1.12E-05,-0.00332506,3.481
-0.003202403,-0.003303706,-5.44E-05,-5.45E-06,-0.000110954,-9.92E-06,2.051337957,-0.000150081,-0.106875219,1.110306978,1.110298038,-1.25E-05,-0.004449431,3.491
-0.001238427,-0.003324821,-6.71E-05,-6.06E-06,-0.000123892,-1.11E-05,2.051158905,-0.000170021,-0.104005568,1.130825281,1.130811691,-1.40E-05,-0.005546963,3.501
0.000587588,-0.003327042,-9.30E-05,-6.92E-06,-0.000145511,-1.25E-05,2.050978899,-0.000197886,-0.100986525,1.151342392,1.151323438,-1.57E-05,-0.006615603,3.511
0.002264089,-0.003311819,-9.20E-05,-7.90E-06,-0.000164044,-1.40E-05,2.050797701,-0.000217886,-0.097867899,1.171858191,1.171833158,-1.77E-05,-0.007653853,3.521
0.003784599,-0.003280685,-7.78E-05,-8.77E-06,-0.000176104,-1.57E-05,2.050614834,-0.000233514,-0.094692767,1.192372441,1.19234097,-1.98E-05,-0.0086607,3.531
0.005146728,-0.003235216,-6.95E-05,-9.52E-06,-0.000184489,-1.76E-05,2.050430298,-0.000251632,-0.091498047,1.212885141,1.212846875,-2.21E-05,-0.009635553,3.541
0.006351355,-0.003176995,-6.53E-05,-1.02E-05,-0.000191739,-1.95E-05,2.050244331,-0.000271047,-0.088315047,1.233396173,1.233350754,-2.45E-05,-0.010578179,3.551
0.007401918,-0.003107578,-6.10E-05,-1.09E-05,-0.00019951,-2.14E-05,2.050056696,-0.000290316,-0.085169978,1.253905296,1.253852725,-2.71E-05,-0.011488653,3.561
0.008303832,-0.003028478,-5.72E-05,-1.15E-05,-0.000208329,-2.35E-05,2.049867868,-0.000310393,-0.082084477,1.274412632,1.27435267,-2.99E-05,-0.012367308,3.571
0.009063993,-0.002941145,-5.50E-05,-1.21E-05,-0.000218275,-2.56E-05,2.049677849,-0.000332,-0.079076126,1.294917941,1.294850588,-3.28E-05,-0.013214692,3.581
0.009690369,-0.002846953,-5.41E-05,-1.27E-05,-0.00022944,-2.79E-05,2.049487114,-0.000354942,-0.076158896,1.315421343,1.315346479,-3.59E-05,-0.014031525,3.591
0.010191663,-0.002747193,-5.37E-05,-1.33E-05,-0.000241837,-3.02E-05,2.049295902,-0.00037903,-0.073343597,1.335922599,1.335840344,-3.93E-05,-0.014818668,3.601
0.010577029,-0.002643065,-5.39E-05,-1.38E-05,-0.000255339,-3.27E-05,2.049104452,-0.000404317,-0.070638254,1.356421828,1.356332302,-4.28E-05,-0.015577092,3.611
0.010855838,-0.002535678,-5.45E-05,-1.44E-05,-0.000269802,-3.54E-05,2.048913002,-0.000430848,-0.068048529,1.376918912,1.376822233,-4.66E-05,-0.016307849,3.621
0.011037499,-0.002426044,-6.05E-05,-1.50E-05,-0.000287328,-3.82E-05,2.04872179,-0.000460347,-0.065578021,1.39741385,1.397310257,-5.06E-05,-0.017012052,3.631
0.011131311,-0.002315084,-0.000101805,-1.58E-05,-0.000313405,-4.12E-05,2.048531294,-0.000509397,-0.06322857,1.417906642,1.417796254,-5.48E-05,-0.017690852,3.641
0.01114634,-0.002203627,-0.000240985,-1.77E-05,-0.000388338,-4.47E-05,2.048341274,-0.000607274,-0.061000571,1.438397288,1.438280344,-5.98E-05,-0.018345429,3.651
0.011091319,-0.002092412,-0.000336002,-2.07E-05,-0.000480731,-4.91E-05,2.048152447,-0.000704782,-0.058893166,1.458885908,1.458762407,-6.57E-05,-0.018976958,3.661
0.010974597,-0.001982093,-0.000380715,-2.45E-05,-0.000573559,-5.44E-05,2.047964811,-0.000794994,-0.05690451,1.479372382,1.479242682,-7.25E-05,-0.019586625,3.671
0.010614795,-0.001873904,-0.000476549,-2.89E-05,-0.000668316,-6.08E-05,2.047803879,-0.000879048,-0.055344664,1.49985671,1.49972105,-8.01E-05,-0.02017648,3.681
0.010057881,-0.001770834,-0.000489342,-3.39E-05,-0.00075514,-6.80E-05,2.047591925,-0.000967899,-0.053789195,1.520339012,1.520197392,-8.85E-05,-0.020749263,3.691
0.009528964,-0.001673189,-0.000525778,-3.91E-05,-0.000831417,-7.60E-05,2.047384739,-0.001077686,-0.052302521,1.540819049,1.540671706,-9.77E-05,-0.021305665,3.701
0.009033855,-0.001580657,-0.00056155,-4.47E-05,-0.000906605,-8.47E-05,2.047187567,-0.001192607,-0.050879013,1.561296821,1.561143994,-0.00010791,-0.021846445,3.711
0.008588343,-0.001492813,-0.000573564,-5.05E-05,-0.000979612,-9.42E-05,2.046998024,-0.001305418,-0.049508292,1.581772566,1.581614375,-0.000119141,-0.022372255,3.721
0.008199163,-0.001409117,-0.000566881,-5.64E-05,-0.001048596,-0.000104416,2.046815157,-0.00141852,-0.048188038,1.602246404,1.602082968,-0.000131344,-0.022883654,3.731
0.007863193,-0.001329015,-0.000550865,-6.21E-05,-0.001111896,-0.000115286,2.04663825,-0.001534472,-0.046918824,1.622718215,1.622549772,-0.000144514,-0.023381174,3.741
0.007573375,-0.001252012,-0.000527869,-6.76E-05,-0.001169882,-0.00012676,2.046466351,-0.00165265,-0.045702189,1.643188238,1.643014908,-0.000158661,-0.023865335,3.751
0.007321117,-0.001177693,-0.000496426,-7.29E-05,-0.001223347,-0.00013879,2.046299458,-0.001771494,-0.044539046,1.663656354,1.663478374,-0.000173785,-0.024336668,3.761
0.007098261,-0.001105728,-0.000456008,-7.78E-05,-0.001272355,-0.00015133,2.046136379,-0.001890119,-0.043429941,1.684122801,1.683940172,-0.000189872,-0.0247957,3.771
0.006897513,-0.001035865,-0.000407945,-8.23E-05,-0.00131677,-0.000164335,2.045977116,-0.002008308,-0.0423752,1.70458734,1.70440042,-0.000206904,-0.025242968,3.781
0.006712501,-0.000967918,-0.000353923,-8.62E-05,-0.001356726,-0.00017776,2.045820713,-0.002125837,-0.041375019,1.72505033,1.724859118,-0.000224862,-0.025679005,3.791
0.006537737,-0.000901761,-0.000295172,-8.96E-05,-0.00139261,-0.000191563,2.045667171,-0.002242259,-0.040429473,1.745511532,1.745316267,-0.000243723,-0.026104352,3.801
0.006368555,-0.000837317,-0.000232753,-9.24E-05,-0.001424829,-0.000205706,2.045515776,-0.002357108,-0.03953851,1.765971065,1.765771985,-0.000263462,-0.026519544,3.811
0.006201062,-0.000774553,-0.000167913,-9.45E-05,-0.001453635,-0.000220151,2.045366287,-0.002470076,-0.038701944,1.786429048,1.786226153,-0.000284048,-0.026925122,3.821
0.006032079,-0.000713469,-0.000101646,-9.60E-05,-0.001479217,-0.000234866,2.045218468,-0.002580746,-0.037919406,1.806885362,1.806678772,-0.000305448,-0.027321629,3.831
0.005859088,-0.000654095,-3.49E-05,-9.68E-05,-0.00150178,-0.000249819,2.045072079,-0.002688698,-0.037190363,1.827340126,1.827130079,-0.000327623,-0.027709598,3.841
0.005680178,-0.000596483,3.14E-05,-9.70E-05,-0.001521567,-0.000264982,2.044926882,-0.002793552,-0.036514074,1.847793341,1.847579837,-0.000350536,-0.028089566,3.851
0.005493987,-0.000540699,9.63E-05,-9.64E-05,-0.001538936,-0.000280331,2.044782639,-0.002895029,-0.035889596,1.868245006,1.868028164,-0.000374144,-0.028462062,3.861
0.005299651,-0.000486821,0.000158472,-9.53E-05,-0.001554275,-0.000295842,2.044639349,-0.002992985,-0.035315786,1.888695121,1.88847506,-0.000398403,-0.028827608,3.871
0.005096745,-0.000434933,0.000222186,-9.35E-05,-0.001566679,-0.000311493,2.044496775,-0.003084928,-0.034791298,1.909143686,1.908920527,-0.000423264,-0.02918672,3.881
0.004885222,-0.000385122,0.000349044,-9.08E-05,-0.001556043,-0.000327169,2.044354677,-0.003141677,-0.034314588,1.929590821,1.929364681,-0.000448576,-0.0295399,3.891
0.004665367,-0.000337472,0.000625455,-8.61E-05,-0.001476635,-0.000342395,2.044213533,-0.003115052,-0.033883929,1.950036407,1.949807286,-0.000473785,-0.029887641,3.901
0.004437824,-0.000292064,0.000901168,-7.83E-05,-0.001342034,-0.000356466,2.044072628,-0.003053413,-0.033497423,1.970480561,1.97024858,-0.000498121,-0.030230416,3.911
0.004203447,-0.00024897,0.001102318,-6.82E-05,-0.001186364,-0.000369063,2.043932438,-0.00299034,-0.033153065,1.990923166,1.990688443,-0.000521423,-0.030568689,3.921
0.004160512,-0.000204465,0.001247394,-5.64E-05,-0.001051702,-0.00038003,2.043195963,-0.002918868,-0.03371333,2.011358023,2.011120558,-0.000543689,-0.030902658,3.931
0.003900022,-0.000163601,0.001359237,-4.33E-05,-0.000866878,-0.000389425,2.042705297,-0.002843338,-0.032366086,2.031788349,2.031548262,-0.000564897,-0.031232852,3.941
0.003782789,-0.000124992,0.001467619,-2.92E-05,-0.000739137,-0.000397454,2.042391777,-0.002743224,-0.032285854,2.052216291,2.051973581,-0.00058498,-0.031559832,3.951
0.00342521,-8.94E-05,0.001560652,-1.39E-05,-0.000588326,-0.000403979,2.042381287,-0.002627661,-0.032198984,2.072642803,2.07239747,-0.000603681,-0.031883962,3.961
0.003145742,-5.66E-05,0.001502499,1.49E-06,-0.000497043,-0.000409322,2.042234898,-0.002558111,-0.031975959,2.093068361,2.092820406,-0.00062112,-0.032205611,3.971
0.002876023,-2.66E-05,0.001354762,1.57E-05,-0.00045499,-0.000414022,2.042090893,-0.002523782,-0.031841852,2.11349225,2.113241911,-0.000637811,-0.032525096,3.981
0.002542265,4.01E-07,0.001174589,2.83E-05,-0.000453193,-0.000418553,2.041971922,-0.002484883,-0.031826109,2.133914948,2.133661985,-0.000653982,-0.03284296,3.991
0.002166877,2.37E-05,0.001043868,3.93E-05,-0.000467989,-0.000423164,2.041834831,-0.002420657,-0.03179634,2.154336214,2.154080868,-0.000669478,-0.033159986,4.001
0.001832462,4.35E-05,0.000967203,4.92E-05,-0.000487514,-0.000427952,2.041695356,-0.002350925,-0.031794693,2.174756289,2.174498558,-0.00068413,-0.03347642,4.011
0.001513485,6.01E-05,0.000842443,5.82E-05,-0.000507961,-0.00043294,2.041561842,-0.002304814,-0.031818215,2.195174932,2.194914579,-0.000697985,-0.033792656,4.021
0.001220714,7.36E-05,0.00066551,6.57E-05,-0.000534614,-0.000438163,2.04142952,-0.002278145,-0.031835113,2.215592146,2.215329409,-0.000711241,-0.034108795,4.031
0.000967556,8.43E-05,0.000469188,7.12E-05,-0.000568844,-0.000443698,2.041297674,-0.002261328,-0.031847421,2.236008167,2.235743046,-0.00072407,-0.034424882,4.041
0.000752012,9.28E-05,0.000290842,7.49E-05,-0.000605141,-0.000449592,2.041169643,-0.002233145,-0.031865858,2.256422997,2.256155491,-0.000736483,-0.034740988,4.051
0.000565035,9.93E-05,0.000151878,7.70E-05,-0.000637245,-0.000455831,2.041042805,-0.002196694,-0.031873081,2.276836395,2.276566505,-0.000748376,-0.03505709,4.061
0.000406963,0.000104035,2.75E-05,7.78E-05,-0.000662713,-0.000462354,2.040917158,-0.002159159,-0.031872556,2.29724884,2.296976328,-0.000759667,-0.035373144,4.071
0.000274311,0.000107356,-9.84E-05,7.73E-05,-0.00068415,-0.000469106,2.040792704,-0.002128975,-0.031864781,2.317659855,2.31738472,-0.000770367,-0.035689104,4.081
0.000163704,0.000109474,-0.000224026,7.56E-05,-0.000704434,-0.000476066,2.040669203,-0.002107271,-0.031850159,2.338069439,2.337792158,-0.000780553,-0.036004916,4.091
7.22E-05,0.000110593,-0.000338071,7.27E-05,-0.000723907,-0.000483225,2.040546417,-0.002090559,-0.031829417,2.358478069,2.358198166,-0.000790293,-0.036320537,4.101
-2.75E-06,0.00011089,-0.000433352,6.88E-05,-0.000741168,-0.000490569,2.040424347,-0.002076271,-0.03180347,2.378885508,2.37860322,-0.000799619,-0.036635924,4.111
-6.35E-05,0.000110518,-0.000509529,6.40E-05,-0.000754825,-0.000498066,2.040302753,-0.002064248,-0.031773292,2.399291515,2.399006844,-0.000808547,-0.036951043,4.121
-0.000112154,0.000109606,-0.000536709,5.86E-05,-0.000753878,-0.000505636,2.040181637,-0.002040545,-0.03173979,2.419696569,2.419409275,-0.000817057,-0.03726586,4.131
0.000898965,0.000110491,-0.000548411,5.32E-05,-0.000737971,-0.000513094,2.03888464,-0.002014713,-0.030801153,2.440099478,2.439809799,-0.000825014,-0.03758033,4.141
0.006135571,0.000146719,-0.000607164,4.74E-05,-0.000730812,-0.000520427,2.03185153,-0.002014691,-0.030105611,2.46046567,2.460173845,-0.000832509,-0.037893008,4.151
0.012151673,0.000241152,-0.000683474,4.09E-05,-0.000737318,-0.000527769,2.021663189,-0.002035002,-0.030027872,2.480746508,2.480452061,-0.000839813,-0.038202249,4.161
0.017612297,0.000393443,-0.00072953,3.37E-05,-0.000747878,-0.000535207,2.010277271,-0.002055867,-0.03036595,2.50091815,2.500621557,-0.00084706,-0.038508356,4.171
0.021948474,0.000594489,-0.000750005,2.63E-05,-0.000757347,-0.000542739,1.998906732,-0.00207663,-0.0310762,2.520974636,2.520675659,-0.000854221,-0.038812704,4.181
0.024958456,0.000831636,-0.000827013,1.84E-05,-0.000788449,-0.000550462,1.988174558,-0.002134188,-0.03208328,2.540919304,2.540617943,-0.000861408,-0.039117057,4.191
0.02667498,0.001091677,-0.000950193,9.39E-06,-0.000853048,-0.000558692,1.978293538,-0.002233335,-0.033281822,2.560759783,2.560456038,-0.000869048,-0.039423063,4.201
0.027249588,0.00136245,-0.001024325,-6.44E-07,-0.000926667,-0.000567643,1.969278336,-0.002335035,-0.034572002,2.580504656,2.580198765,-0.000877421,-0.039731957,4.211
0.026883258,0.00163362,-0.001011953,-1.09E-05,-0.000985019,-0.000577261,1.961056948,-0.00241501,-0.035865173,2.600162745,2.599854231,-0.000886418,-0.040044427,4.221
0.025784777,0.001896932,-0.000944416,-2.08E-05,-0.001019946,-0.000587334,1.953531027,-0.002478988,-0.037089057,2.619741678,2.619430542,-0.000895794,-0.040360615,4.231
0.024146808,0.002146143,-0.000862767,-2.98E-05,-0.001033877,-0.000597637,1.946606874,-0.002541099,-0.038189568,2.639247656,2.638934135,-0.000905412,-0.040680178,4.241
0.02213449,0.002376792,-0.000789327,-3.81E-05,-0.001034852,-0.000608,1.940206885,-0.00260985,-0.039129399,2.658686876,2.658370495,-0.000915281,-0.041002404,4.251
0.019882267,0.0025859,-0.000717617,-4.56E-05,-0.001028222,-0.000618328,1.93427074,-0.002682372,-0.039885171,2.678064346,2.677745342,-0.00092546,-0.041326322,4.261
0.017495399,0.00277167,-0.000634636,-5.24E-05,-0.001015444,-0.000628556,1.928754568,-0.002752211,-0.040444456,2.697384119,2.697062492,-0.00093596,-0.04165078,4.271
